loopIteration, time (us), axisP[0], axisP[1], axisP[2], axisI[0], axisI[1], axisI[2], axisD[0], axisD[1], rcCommand[0], rcCommand[1], rcCommand[2], rcCommand[3], gyroADC[0], gyroADC[1], gyroADC[2], accSmooth[0], accSmooth[1], accSmooth[2], motor[0], motor[1], motor[2], motor[3], flightModeFlags (flags), stateFlags (flags), failsafePhase (flags)
1560,54000370,1,0,-4,-3,13,1,-1,3,0,24,0,1360,-54,558,34,0,0,0,1377,1349,1375,1339,0, SMALL_ANGLE, IDLE
1562,54002373,1,-1,0,-3,13,1,0,-3,0,24,0,1360,-14,645,-63,0,0,0,1371,1355,1363,1351,0, SMALL_ANGLE, IDLE
1564,54004372,0,0,-3,-3,13,1,-2,1,0,24,0,1360,-15,490,102,0,0,0,1377,1353,1371,1339,0, SMALL_ANGLE, IDLE
1566,54006365,1,0,-3,-3,13,1,0,2,0,24,0,1360,-57,622,-38,0,0,0,1375,1349,1375,1341,0, SMALL_ANGLE, IDLE
1568,54008371,1,-2,0,-3,13,1,0,-5,0,24,0,1360,-10,606,-11,0,0,0,1370,1356,1362,1352,0, SMALL_ANGLE, IDLE
1570,54010364,0,0,-4,-3,13,1,-1,3,0,24,0,1360,-31,494,115,0,0,0,1377,1351,1375,1337,0, SMALL_ANGLE, IDLE
1572,54012368,1,-1,-1,-3,13,1,0,0,0,24,0,1360,-39,668,-101,0,0,0,1373,1351,1369,1347,0, SMALL_ANGLE, IDLE
1574,54014374,0,-1,-1,-3,13,1,-1,-3,0,24,0,1360,-9,533,61,0,0,0,1372,1356,1364,1348,0, SMALL_ANGLE, IDLE
1576,54016367,1,0,-4,-3,13,1,0,5,0,24,0,1360,-47,544,57,0,0,0,1378,1348,1378,1336,0, SMALL_ANGLE, IDLE
1578,54018374,1,-2,0,-3,13,1,0,-4,0,24,-1,1360,-23,671,-118,0,0,0,1370,1354,1364,1352,0, SMALL_ANGLE, IDLE
1580,54020367,0,-1,-3,-3,13,1,0,0,0,24,-1,1360,-25,493,129,0,0,0,1373,1353,1371,1343,0, SMALL_ANGLE, IDLE
1582,54022368,1,-1,-5,-3,13,1,0,2,0,24,-1,1360,-54,626,-26,0,0,0,1372,1350,1378,1340,0, SMALL_ANGLE, IDLE
1584,54024372,1,-2,-1,-3,13,1,0,-5,0,24,-1,1360,-14,629,-58,0,0,0,1367,1357,1363,1353,0, SMALL_ANGLE, IDLE
1586,54026374,1,0,-7,-3,13,1,0,2,0,24,-1,1360,-51,496,153,0,0,0,1371,1353,1379,1337,0, SMALL_ANGLE, IDLE
1588,54028366,1,-2,-5,-3,12,1,1,0,0,24,-1,1360,-50,681,-113,0,0,0,1366,1354,1374,1346,0, SMALL_ANGLE, IDLE
1590,54030363,1,-2,-3,-3,12,1,-1,-4,0,24,-1,1360,-7,564,17,0,0,0,1367,1359,1365,1349,0, SMALL_ANGLE, IDLE
1592,54032365,1,-1,-8,-3,12,1,0,4,0,24,-1,1360,-70,551,100,0,0,0,1371,1353,1381,1335,0, SMALL_ANGLE, IDLE
1594,54034369,1,-2,-3,-3,12,1,1,-4,0,24,-1,1360,-40,690,-142,0,0,0,1363,1357,1367,1353,0, SMALL_ANGLE, IDLE
1596,54036368,1,-2,-4,-3,12,1,0,-1,0,24,-1,1360,-25,520,78,0,0,0,1370,1356,1370,1344,0, SMALL_ANGLE, IDLE
1598,54038570,1,-1,-6,-3,12,1,1,3,0,24,-1,1360,-76,627,-1,0,0,0,1369,1351,1379,1341,0, SMALL_ANGLE, IDLE
1600,54040368,1,-3,-1,-3,12,1,0,-4,0,24,-1,1360,-20,641,-119,0,0,0,1367,1355,1365,1353,0, SMALL_ANGLE, IDLE
1602,54042369,1,-1,-4,-3,12,1,-1,2,0,24,-1,1360,-42,523,97,0,0,0,1374,1352,1374,1340,0, SMALL_ANGLE, IDLE
1604,54044366,1,-2,-3,-3,12,1,1,0,0,24,-1,1360,-65,673,-71,0,0,0,1369,1351,1373,1347,0, SMALL_ANGLE, IDLE
1606,54046367,1,-2,0,-3,12,1,0,-3,0,24,-1,1361,-14,580,-52,0,0,0,1371,1355,1365,1353,0, SMALL_ANGLE, IDLE
1608,54048369,1,-1,-3,-2,12,1,-1,3,0,24,-1,1361,-51,567,65,0,0,0,1376,1352,1374,1342,0, SMALL_ANGLE, IDLE
1610,54050369,1,-3,-1,-2,12,1,1,-2,0,24,-1,1361,-49,663,-90,0,0,0,1369,1353,1369,1353,0, SMALL_ANGLE, IDLE
1612,54052367,1,-2,-1,-2,12,1,-1,0,0,24,-1,1361,-11,563,7,0,0,0,1374,1354,1368,1348,0, SMALL_ANGLE, IDLE
1614,54054360,1,-2,-3,-2,12,1,0,0,0,24,-1,1360,-49,635,3,0,0,0,1371,1353,1371,1345,0, SMALL_ANGLE, IDLE
1616,54056362,1,-2,0,-2,12,1,0,-2,0,24,-1,1360,-21,598,-67,0,0,0,1370,1354,1366,1350,0, SMALL_ANGLE, IDLE
1618,54058365,0,-2,-1,-2,12,1,-2,1,0,24,-1,1360,-6,595,8,0,0,0,1376,1352,1368,1344,0, SMALL_ANGLE, IDLE
1620,54060368,0,-3,-1,-2,12,1,-1,-1,0,24,-1,1360,-36,634,-32,0,0,0,1371,1355,1365,1349,0, SMALL_ANGLE, IDLE
1622,54062362,0,-2,-1,-2,12,1,0,0,0,24,-1,1360,-6,555,-17,0,0,0,1374,1352,1368,1346,0, SMALL_ANGLE, IDLE
1624,54064358,0,-2,-1,-2,12,1,-2,0,0,24,-1,1360,-10,660,-17,0,0,0,1374,1354,1366,1346,0, SMALL_ANGLE, IDLE
1626,54066365,0,-3,-1,-2,12,1,-1,-2,0,24,-1,1360,-11,593,-11,0,0,0,1370,1356,1364,1350,0, SMALL_ANGLE, IDLE
1628,54068357,0,-2,-2,-2,12,1,-1,3,0,24,-1,1360,0,567,-2,0,0,0,1377,1351,1371,1341,0, SMALL_ANGLE, IDLE
1630,54070361,0,-3,-1,-2,12,1,-1,-2,0,24,-1,1360,-5,675,-37,0,0,0,1371,1357,1363,1349,0, SMALL_ANGLE, IDLE
1632,54072358,0,-2,-2,-2,12,1,-1,0,0,24,-1,1360,3,541,17,0,0,0,1373,1355,1367,1345,0, SMALL_ANGLE, IDLE
1634,54074366,0,-2,-2,-2,12,1,-1,3,0,24,-1,1360,-5,620,-24,0,0,0,1376,1352,1370,1342,0, SMALL_ANGLE, IDLE
1636,54076358,0,-3,-1,-2,12,1,0,-4,0,24,-1,1360,-2,645,-27,0,0,0,1369,1359,1361,1351,0, SMALL_ANGLE, IDLE
1638,54078357,0,-1,-3,-2,12,1,-1,2,0,24,-1,1360,2,523,28,0,0,0,1376,1352,1372,1340,0, SMALL_ANGLE, IDLE
1640,54080359,0,-2,-2,-2,12,1,0,1,0,24,-1,1360,-1,662,-58,0,0,0,1374,1354,1368,1344,0, SMALL_ANGLE, IDLE
1642,54082363,0,-2,-1,-2,12,1,0,-2,0,24,-1,1361,0,573,-3,0,0,0,1372,1358,1364,1350,0, SMALL_ANGLE, IDLE
1644,54084364,0,-1,-3,-2,12,1,0,5,0,24,-1,1361,-2,548,17,0,0,0,1378,1350,1376,1340,0, SMALL_ANGLE, IDLE
1646,54086363,0,-2,-1,-2,12,1,0,-2,0,24,-1,1361,1,679,-67,0,0,0,1371,1357,1365,1351,0, SMALL_ANGLE, IDLE
1648,54088358,0,-1,-2,-2,12,1,0,0,0,24,-1,1361,2,512,27,0,0,0,1374,1356,1368,1346,0, SMALL_ANGLE, IDLE
1650,54090358,0,-1,-3,-2,12,1,0,4,0,24,-1,1361,0,599,-14,0,0,0,1378,1350,1376,1340,0, SMALL_ANGLE, IDLE
1652,54092365,0,-2,0,-2,12,1,0,-3,0,24,-1,1361,6,649,-64,0,0,0,1371,1357,1363,1353,0, SMALL_ANGLE, IDLE
1654,54094359,0,-1,-2,-2,12,1,0,3,0,24,-1,1361,8,480,32,0,0,0,1379,1351,1373,1341,0, SMALL_ANGLE, IDLE
1656,54096357,0,-1,-1,-2,12,1,0,2,0,24,-1,1361,-3,648,-56,0,0,0,1377,1351,1371,1345,0, SMALL_ANGLE, IDLE
1658,54098364,0,-2,0,-2,12,1,0,-3,0,24,-1,1361,5,591,-30,0,0,0,1371,1357,1363,1353,0, SMALL_ANGLE, IDLE
1660,54100357,0,0,-2,-2,12,1,0,5,0,24,-1,1361,-1,513,30,0,0,0,1380,1348,1376,1340,0, SMALL_ANGLE, IDLE
1662,54102358,0,-2,0,-2,12,1,0,-1,0,24,-1,1361,-2,667,-77,0,0,0,1374,1354,1366,1350,0, SMALL_ANGLE, IDLE
1664,54104356,0,-1,0,-2,12,1,0,-1,0,24,-1,1361,4,520,1,0,0,0,1375,1353,1367,1349,0, SMALL_ANGLE, IDLE
1666,54106353,0,0,-1,-2,12,1,0,5,0,24,-1,1361,-10,567,-5,0,0,0,1380,1348,1376,1340,0, SMALL_ANGLE, IDLE
1668,54108359,0,-2,0,-2,12,1,0,-3,0,23,-1,1361,0,627,-62,0,0,0,1371,1355,1365,1353,0, SMALL_ANGLE, IDLE
1670,54110353,0,-1,-1,-2,12,1,0,0,0,23,-1,1361,5,489,27,0,0,0,1376,1352,1370,1346,0, SMALL_ANGLE, IDLE
1672,54112355,0,-1,-1,-2,12,1,0,1,0,23,-1,1361,-6,617,-34,0,0,0,1376,1352,1370,1346,0, SMALL_ANGLE, IDLE
1674,54114361,0,-2,0,-2,12,1,0,-3,0,23,-1,1361,4,571,-34,0,0,0,1371,1357,1363,1353,0, SMALL_ANGLE, IDLE
1676,54116364,0,-1,-1,-2,12,1,0,2,0,23,-1,1361,-6,519,7,0,0,0,1377,1351,1371,1345,0, SMALL_ANGLE, IDLE
1678,54118362,0,-2,0,-2,12,1,0,-1,0,23,-1,1361,-2,622,-47,0,0,0,1372,1354,1368,1350,0, SMALL_ANGLE, IDLE
1680,54120355,0,-1,0,-2,12,1,0,-1,0,23,-1,1361,-1,533,-14,0,0,0,1374,1354,1366,1350,0, SMALL_ANGLE, IDLE
1682,54122355,0,-1,-1,-2,12,1,0,1,0,23,-1,1361,-5,565,-10,0,0,0,1377,1351,1371,1345,0, SMALL_ANGLE, IDLE
1684,54124356,0,-2,-1,-2,12,1,0,-1,0,23,-1,1362,2,576,-24,0,0,0,1373,1357,1367,1351,0, SMALL_ANGLE, IDLE
1686,54126357,0,-1,-1,-2,12,1,0,0,0,22,-1,1363,-12,531,-13,0,0,0,1376,1354,1372,1350,0, SMALL_ANGLE, IDLE
1688,54128356,0,-2,-1,-2,12,1,0,-1,0,22,-1,1363,-2,588,-19,0,0,0,1373,1357,1369,1353,0, SMALL_ANGLE, IDLE
1690,54130359,0,-2,-1,-2,12,1,0,-1,0,22,-1,1363,0,526,-5,0,0,0,1373,1359,1369,1351,0, SMALL_ANGLE, IDLE
1692,54132361,0,-2,-1,-2,12,1,0,0,0,22,-1,1363,-2,564,-32,0,0,0,1377,1355,1371,1349,0, SMALL_ANGLE, IDLE
1694,54134353,0,-2,-1,-2,11,1,0,-2,0,22,-1,1363,-2,560,-8,0,0,0,1373,1359,1367,1353,0, SMALL_ANGLE, IDLE
1696,54136355,0,-1,-1,-2,11,1,0,2,0,22,-1,1363,-18,497,-13,0,0,0,1376,1354,1374,1348,0, SMALL_ANGLE, IDLE
1698,54138571,0,-2,0,-2,11,1,0,0,0,22,-1,1363,0,585,-51,0,0,0,1376,1354,1370,1352,0, SMALL_ANGLE, IDLE
1700,54140354,0,-2,-1,-2,11,1,0,-1,0,21,-1,1363,-9,512,11,0,0,0,1374,1358,1368,1352,0, SMALL_ANGLE, IDLE
1702,54142347,0,-1,-1,-2,11,1,1,2,0,21,-1,1363,-23,517,-37,0,0,0,1376,1352,1374,1350,0, SMALL_ANGLE, IDLE
1704,54144354,0,-2,0,-2,11,1,0,-2,0,21,0,1364,0,576,-43,0,0,0,1375,1357,1367,1357,0, SMALL_ANGLE, IDLE
1706,54146353,0,-1,0,-2,11,1,0,1,0,21,0,1364,-26,470,21,0,0,0,1378,1354,1372,1352,0, SMALL_ANGLE, IDLE
1708,54148355,0,-1,1,-2,11,1,1,2,0,21,0,1364,-29,549,-62,0,0,0,1379,1349,1373,1355,0, SMALL_ANGLE, IDLE
1710,54150359,0,-2,2,-2,11,1,0,-2,0,21,0,1364,-7,525,-8,0,0,0,1377,1355,1365,1359,0, SMALL_ANGLE, IDLE
1712,54152353,0,-1,1,-2,11,1,0,4,0,21,0,1364,-30,457,12,0,0,0,1383,1347,1375,1351,0, SMALL_ANGLE, IDLE
1714,54154347,0,-1,3,-2,11,1,0,0,0,21,0,1365,-14,580,-79,0,0,0,1381,1351,1369,1359,0, SMALL_ANGLE, IDLE
1716,54156357,0,-1,2,-2,11,1,0,0,0,21,0,1365,-5,465,27,0,0,0,1381,1355,1367,1357,0, SMALL_ANGLE, IDLE
1718,54158354,0,-1,2,-2,11,1,0,4,0,20,0,1365,-26,476,-21,0,0,0,1385,1349,1375,1351,0, SMALL_ANGLE, IDLE
1720,54160354,0,-2,4,-2,11,1,0,-3,0,20,0,1365,-9,573,-61,0,0,0,1379,1355,1363,1363,0, SMALL_ANGLE, IDLE
1722,54162354,0,-1,1,-2,11,1,0,0,0,20,0,1366,-19,416,56,0,0,0,1382,1354,1372,1356,0, SMALL_ANGLE, IDLE
1724,54164346,0,-1,2,-2,11,1,0,3,0,20,0,1366,-18,520,-51,0,0,0,1385,1349,1375,1355,0, SMALL_ANGLE, IDLE
1726,54166348,0,-2,3,-2,11,1,0,-3,0,20,0,1366,0,515,-7,0,0,0,1379,1359,1365,1361,0, SMALL_ANGLE, IDLE
1728,54168360,0,0,0,-2,11,1,0,4,0,20,0,1366,-17,395,54,0,0,0,1386,1352,1378,1348,0, SMALL_ANGLE, IDLE
1730,54170354,0,-1,1,-2,11,1,0,1,0,20,0,1367,3,549,-68,0,0,0,1385,1355,1373,1355,0, SMALL_ANGLE, IDLE
1732,54172348,0,-1,0,-2,11,1,-1,-1,0,20,0,1367,11,429,64,0,0,0,1382,1360,1370,1356,0, SMALL_ANGLE, IDLE
1734,54174346,0,0,-1,-2,11,1,0,6,0,20,0,1367,-14,427,21,0,0,0,1389,1351,1383,1345,0, SMALL_ANGLE, IDLE
1736,54176350,0,-1,0,-2,11,1,0,-1,0,20,0,1367,12,551,-46,0,0,0,1381,1359,1371,1357,0, SMALL_ANGLE, IDLE
1738,54178352,0,0,-2,-2,11,1,-1,1,0,20,0,1367,6,367,100,0,0,0,1384,1358,1378,1348,0, SMALL_ANGLE, IDLE
1740,54180354,0,0,-1,-2,11,1,0,5,0,20,0,1367,-4,483,-37,0,0,0,1387,1353,1383,1345,0, SMALL_ANGLE, IDLE
1742,54182349,0,0,0,-2,11,1,-1,-2,0,20,0,1367,20,490,7,0,0,0,1380,1362,1370,1356,0, SMALL_ANGLE, IDLE
1744,54184352,0,1,-3,-2,11,1,0,5,0,20,0,1367,-9,354,81,0,0,0,1387,1355,1383,1343,0, SMALL_ANGLE, IDLE
1746,54186348,0,0,-1,-2,11,1,0,2,0,20,0,1367,11,517,-70,0,0,0,1384,1356,1378,1350,0, SMALL_ANGLE, IDLE
1748,54188353,0,0,-1,-2,11,1,-1,-1,0,20,0,1367,17,421,55,0,0,0,1382,1362,1372,1352,0, SMALL_ANGLE, IDLE
1750,54190343,0,1,-3,-2,11,1,0,6,0,20,0,1367,-12,396,19,0,0,0,1387,1353,1385,1343,0, SMALL_ANGLE, IDLE
1752,54192343,0,0,0,-2,11,1,0,0,0,20,0,1367,26,499,-56,0,0,0,1383,1357,1375,1353,0, SMALL_ANGLE, IDLE
1754,54194352,0,1,-1,-2,11,1,-1,1,0,20,0,1367,3,370,67,0,0,0,1385,1357,1379,1347,0, SMALL_ANGLE, IDLE
1756,54196347,0,1,-1,-2,11,1,0,4,0,20,0,1367,-3,457,-32,0,0,0,1386,1352,1382,1348,0, SMALL_ANGLE, IDLE
1758,54198347,0,0,0,-2,11,1,0,-1,0,20,0,1371,25,450,-9,0,0,0,1387,1363,1377,1357,0, SMALL_ANGLE, IDLE
1760,54200349,0,1,-1,-2,11,1,0,3,0,20,0,1379,0,374,47,0,0,0,1400,1366,1392,1358,0, SMALL_ANGLE, IDLE
1762,54202343,0,1,0,-2,11,1,0,1,0,20,0,1386,14,478,-43,0,0,0,1404,1374,1396,1370,0, SMALL_ANGLE, IDLE
1764,54204353,0,1,0,-2,11,1,0,0,0,20,0,1393,7,399,21,0,0,0,1411,1383,1401,1377,0, SMALL_ANGLE, IDLE
1766,54206355,0,1,0,-2,11,1,0,2,0,20,0,1401,0,425,-3,0,0,0,1422,1386,1414,1382,0, SMALL_ANGLE, IDLE
1768,54208346,0,1,0,-2,11,1,0,0,0,21,0,1403,20,450,-17,0,0,0,1422,1390,1412,1388,0, SMALL_ANGLE, IDLE
1770,54210348,0,2,0,-2,11,1,0,3,0,21,0,1406,1,402,16,0,0,0,1428,1390,1420,1386,0, SMALL_ANGLE, IDLE
1772,54212341,0,2,0,-2,11,1,0,1,0,21,0,1410,21,455,-23,0,0,0,1431,1395,1421,1393,0, SMALL_ANGLE, IDLE
1774,54214344,0,2,0,-2,11,1,-1,1,0,21,0,1412,22,390,33,0,0,0,1434,1400,1422,1392,0, SMALL_ANGLE, IDLE
1776,54216340,0,2,0,-2,11,1,0,3,0,21,0,1414,18,445,-23,0,0,0,1437,1399,1427,1393,0, SMALL_ANGLE, IDLE
1778,54218346,0,2,0,-2,12,1,-1,0,0,21,0,1414,38,431,13,0,0,0,1434,1404,1422,1396,0, SMALL_ANGLE, IDLE
1780,54220347,0,3,0,-2,12,1,-1,3,0,21,0,1416,20,390,8,0,0,0,1440,1402,1430,1392,0, SMALL_ANGLE, IDLE
1782,54222352,-1,2,0,-2,12,1,-1,0,0,21,0,1416,48,489,-40,0,0,0,1436,1406,1422,1400,0, SMALL_ANGLE, IDLE
1784,54224345,-1,2,-1,-2,12,1,-2,0,0,21,0,1417,36,367,71,0,0,0,1439,1407,1427,1395,0, SMALL_ANGLE, IDLE
1786,54226345,-1,2,0,-2,12,1,0,2,0,21,0,1418,35,473,-42,0,0,0,1441,1405,1429,1397,0, SMALL_ANGLE, IDLE
1788,54228343,-1,1,0,-2,12,1,-2,-3,0,21,0,1418,67,438,34,0,0,0,1437,1413,1421,1401,0, SMALL_ANGLE, IDLE
1790,54230348,-1,3,-2,-2,12,1,-1,4,0,21,0,1418,39,371,47,0,0,0,1443,1407,1433,1389,0, SMALL_ANGLE, IDLE
1792,54232342,-1,1,0,-3,12,1,-1,-2,0,21,0,1418,65,532,-49,0,0,0,1436,1412,1422,1402,0, SMALL_ANGLE, IDLE
1794,54234342,-2,2,-2,-3,12,1,-2,0,0,21,0,1419,59,347,91,0,0,0,1440,1414,1428,1394,0, SMALL_ANGLE, IDLE
1796,54236346,-1,2,-2,-3,12,1,-1,3,0,21,0,1419,55,484,-45,0,0,0,1442,1408,1432,1394,0, SMALL_ANGLE, IDLE
1798,54238580,-2,1,-1,-3,12,1,-2,-6,0,21,0,1419,77,451,29,0,0,0,1435,1419,1419,1403,0, SMALL_ANGLE, IDLE
1800,54240342,-2,2,-2,-3,12,1,-1,3,0,21,0,1419,62,367,32,0,0,0,1442,1410,1432,1392,0, SMALL_ANGLE, IDLE
1802,54242344,-2,1,0,-3,12,1,-1,-3,0,21,0,1419,70,546,-42,0,0,0,1437,1415,1421,1403,0, SMALL_ANGLE, IDLE
1804,54244341,-2,2,-3,-3,12,1,0,0,0,21,0,1419,54,342,91,0,0,0,1437,1413,1429,1397,0, SMALL_ANGLE, IDLE
1806,54246337,-2,2,-2,-3,12,1,0,2,0,21,0,1419,59,501,-46,0,0,0,1441,1409,1431,1395,0, SMALL_ANGLE, IDLE
1808,54248346,-2,1,-2,-3,12,1,0,-4,0,21,0,1419,61,422,53,0,0,0,1434,1416,1424,1402,0, SMALL_ANGLE, IDLE
1810,54250346,-2,2,-3,-3,12,1,0,4,0,21,0,1419,53,396,-2,0,0,0,1443,1407,1435,1391,0, SMALL_ANGLE, IDLE
1812,54252344,-2,1,0,-3,12,1,0,-3,0,21,0,1419,59,509,-32,0,0,0,1437,1413,1423,1403,0, SMALL_ANGLE, IDLE
1814,54254342,-2,3,-2,-3,12,1,0,2,0,21,0,1419,48,337,61,0,0,0,1442,1408,1432,1394,0, SMALL_ANGLE, IDLE
1816,54256339,-1,2,0,-3,12,1,0,1,0,21,0,1419,43,498,-59,0,0,0,1440,1406,1430,1400,0, SMALL_ANGLE, IDLE
1818,54258340,-1,2,-1,-3,12,1,0,0,0,21,0,1419,55,366,70,0,0,0,1437,1411,1429,1399,0, SMALL_ANGLE, IDLE
1820,54260344,-1,3,-2,-3,12,1,0,4,0,21,0,1419,30,426,-9,0,0,0,1442,1404,1436,1394,0, SMALL_ANGLE, IDLE
1822,54262345,-1,3,-1,-3,12,1,1,0,0,22,0,1419,42,435,14,0,0,0,1438,1408,1430,1400,0, SMALL_ANGLE, IDLE
1824,54264340,-1,4,-2,-3,12,1,0,4,0,22,0,1419,30,373,27,0,0,0,1443,1403,1439,1391,0, SMALL_ANGLE, IDLE
1826,54266341,-1,3,-1,-3,12,1,2,1,0,22,0,1419,20,450,-5,0,0,0,1439,1405,1435,1397,0, SMALL_ANGLE, IDLE
1828,54268336,-1,4,-2,-3,12,1,1,2,0,22,0,1419,24,372,33,0,0,0,1441,1403,1437,1395,0, SMALL_ANGLE, IDLE
1830,54270343,0,4,-2,-3,12,1,1,2,0,22,0,1419,13,427,10,0,0,0,1441,1403,1437,1395,0, SMALL_ANGLE, IDLE
1832,54272335,0,4,-2,-3,12,1,1,1,0,22,0,1419,20,388,18,0,0,0,1439,1405,1437,1395,0, SMALL_ANGLE, IDLE
1834,54274335,0,4,-2,-3,12,1,0,2,0,22,0,1419,25,410,10,0,0,0,1442,1404,1436,1394,0, SMALL_ANGLE, IDLE
1836,54276343,0,5,-2,-3,12,1,1,2,0,22,0,1419,17,377,24,0,0,0,1440,1404,1438,1394,0, SMALL_ANGLE, IDLE
1838,54278334,0,5,-1,-3,12,1,0,1,0,22,0,1419,38,419,-29,0,0,0,1443,1403,1435,1395,0, SMALL_ANGLE, IDLE
1840,54280338,0,5,-2,-3,12,1,0,2,0,23,0,1419,15,372,45,0,0,0,1443,1403,1437,1393,0, SMALL_ANGLE, IDLE
1842,54282337,0,5,-1,-3,12,1,1,3,0,23,0,1419,26,421,-36,0,0,0,1445,1399,1439,1393,0, SMALL_ANGLE, IDLE
1844,54284342,0,5,0,-3,13,1,0,0,0,23,0,1419,30,409,23,0,0,0,1443,1405,1433,1395,0, SMALL_ANGLE, IDLE
1846,54286335,0,6,-2,-3,13,1,0,4,0,23,0,1419,14,363,18,0,0,0,1446,1400,1440,1390,0, SMALL_ANGLE, IDLE
1848,54288333,0,5,0,-3,13,1,0,0,0,23,0,1419,37,463,-31,0,0,0,1443,1405,1431,1397,0, SMALL_ANGLE, IDLE
1850,54290332,0,6,-2,-3,13,1,0,2,0,23,0,1419,23,325,80,0,0,0,1444,1404,1438,1390,0, SMALL_ANGLE, IDLE
1852,54292339,-1,5,-1,-3,13,1,0,1,0,23,0,1419,36,475,-57,0,0,0,1445,1403,1435,1393,0, SMALL_ANGLE, IDLE
1854,54294336,-1,5,-1,-3,13,1,-1,-2,0,23,0,1419,46,377,60,0,0,0,1441,1409,1431,1395,0, SMALL_ANGLE, IDLE
1856,54296338,-1,6,-1,-3,13,1,-1,3,0,23,0,1419,51,425,-31,0,0,0,1447,1405,1435,1389,0, SMALL_ANGLE, IDLE
1858,54298334,-1,4,0,-3,13,1,-2,-3,0,23,0,1418,68,452,14,0,0,0,1441,1411,1423,1397,0, SMALL_ANGLE, IDLE
1860,54300331,-1,5,-2,-3,13,1,-2,2,0,23,0,1418,59,367,31,0,0,0,1446,1406,1432,1388,0, SMALL_ANGLE, IDLE
1862,54302341,-2,4,0,-4,13,1,-2,-2,0,23,0,1418,74,494,-32,0,0,0,1443,1409,1425,1395,0, SMALL_ANGLE, IDLE
1864,54304335,-2,5,-2,-4,13,1,-2,0,0,23,0,1418,67,363,72,0,0,0,1444,1410,1430,1388,0, SMALL_ANGLE, IDLE
1866,54306340,-2,4,-1,-4,13,1,-1,0,0,23,0,1418,72,495,-43,0,0,0,1444,1408,1428,1392,0, SMALL_ANGLE, IDLE
1868,54308338,-2,4,-3,-4,13,1,-1,-3,0,23,0,1418,71,411,87,0,0,0,1438,1414,1426,1394,0, SMALL_ANGLE, IDLE
1870,54310330,-2,4,-3,-4,13,1,-1,0,0,23,0,1418,67,449,-17,0,0,0,1443,1409,1431,1389,0, SMALL_ANGLE, IDLE
1872,54312340,-2,3,-2,-4,13,1,-1,-4,0,23,0,1418,67,468,32,0,0,0,1438,1414,1424,1396,0, SMALL_ANGLE, IDLE
1874,54314330,-2,4,-4,-4,13,1,0,0,0,23,0,1418,67,412,39,0,0,0,1442,1410,1432,1388,0, SMALL_ANGLE, IDLE
1876,54316338,-2,3,-2,-4,13,1,0,-3,0,22,0,1418,68,503,-20,0,0,0,1437,1413,1425,1397,0, SMALL_ANGLE, IDLE
1878,54318331,-2,3,-4,-4,13,1,0,-3,0,22,0,1418,72,425,71,0,0,0,1436,1416,1426,1394,0, SMALL_ANGLE, IDLE
1880,54320334,-2,2,-3,-4,13,1,0,-2,0,22,0,1418,57,484,-23,0,0,0,1437,1413,1427,1395,0, SMALL_ANGLE, IDLE
1882,54322334,-2,2,-3,-4,13,1,0,-3,0,22,0,1419,77,450,45,0,0,0,1436,1416,1426,1398,0, SMALL_ANGLE, IDLE
1884,54324330,-2,2,-2,-4,13,1,0,-1,0,22,0,1419,50,459,-16,0,0,0,1439,1413,1429,1395,0, SMALL_ANGLE, IDLE
1886,54326338,-2,2,-2,-4,13,1,0,-2,0,22,0,1419,55,471,8,0,0,0,1437,1413,1427,1399,0, SMALL_ANGLE, IDLE
1888,54328338,-2,1,-2,-4,13,1,0,-3,0,22,0,1419,58,489,2,0,0,0,1437,1415,1425,1399,0, SMALL_ANGLE, IDLE
1890,54330338,-1,1,-2,-4,13,1,1,-1,0,22,0,1419,40,447,19,0,0,0,1438,1412,1428,1398,0, SMALL_ANGLE, IDLE
1892,54332336,-1,1,-1,-4,13,1,1,-2,0,22,0,1419,51,507,-14,0,0,0,1436,1412,1428,1400,0, SMALL_ANGLE, IDLE
1894,54334332,-1,1,-1,-4,13,1,1,-2,0,22,0,1419,31,440,16,0,0,0,1437,1411,1427,1401,0, SMALL_ANGLE, IDLE
1896,54336327,-1,1,-1,-4,13,1,2,0,0,22,0,1419,29,487,-1,0,0,0,1438,1408,1432,1398,0, SMALL_ANGLE, IDLE
1898,54338581,-1,1,0,-4,13,1,1,-4,0,22,0,1419,35,484,-21,0,0,0,1436,1412,1424,1404,0, SMALL_ANGLE, IDLE
1900,54340328,-1,2,-1,-4,13,1,1,0,0,21,0,1419,20,417,52,0,0,0,1439,1407,1433,1397,0, SMALL_ANGLE, IDLE
1902,54342333,-1,0,0,-4,13,1,1,-3,0,21,0,1419,30,529,-49,0,0,0,1435,1411,1425,1405,0, SMALL_ANGLE, IDLE
1904,54344329,0,1,-1,-4,13,1,1,-1,0,21,0,1419,11,387,69,0,0,0,1437,1409,1429,1401,0, SMALL_ANGLE, IDLE
1906,54346327,0,1,-1,-4,13,1,2,0,0,21,0,1419,18,515,-35,0,0,0,1437,1407,1431,1401,0, SMALL_ANGLE, IDLE
1908,54348331,0,1,0,-4,13,1,1,-3,0,21,0,1419,17,428,24,0,0,0,1435,1411,1427,1403,0, SMALL_ANGLE, IDLE
1910,54350327,0,1,-1,-4,13,1,1,2,0,21,0,1419,18,446,4,0,0,0,1440,1406,1434,1396,0, SMALL_ANGLE, IDLE
1912,54352334,0,0,0,-4,13,1,0,-3,0,21,0,1419,28,495,-37,0,0,0,1437,1411,1423,1405,0, SMALL_ANGLE, IDLE
1914,54354334,0,1,-1,-4,13,1,0,1,0,21,0,1419,14,393,51,0,0,0,1442,1406,1432,1396,0, SMALL_ANGLE, IDLE
1916,54356326,0,0,0,-4,13,1,1,-1,0,21,0,1419,20,517,-58,0,0,0,1440,1408,1426,1402,0, SMALL_ANGLE, IDLE
1918,54358325,0,1,-1,-4,13,1,0,0,0,21,0,1419,25,389,67,0,0,0,1439,1409,1429,1399,0, SMALL_ANGLE, IDLE
1920,54360327,0,1,0,-4,13,1,0,1,0,21,0,1419,28,491,-39,0,0,0,1442,1408,1430,1396,0, SMALL_ANGLE, IDLE
1922,54362331,0,1,0,-4,14,1,0,-1,0,21,0,1419,30,416,41,0,0,0,1439,1411,1427,1399,0, SMALL_ANGLE, IDLE
1924,54364326,0,2,-2,-4,14,1,0,3,0,21,0,1419,28,438,8,0,0,0,1443,1407,1433,1393,0, SMALL_ANGLE, IDLE
1926,54366327,0,1,0,-4,14,1,0,-1,0,21,0,1419,27,470,-21,0,0,0,1439,1411,1425,1401,0, SMALL_ANGLE, IDLE
1928,54368328,-1,1,-2,-4,14,1,0,0,0,20,0,1419,34,404,59,0,0,0,1441,1409,1431,1395,0, SMALL_ANGLE, IDLE
1930,54370333,-1,0,0,-4,14,1,0,-2,0,20,0,1419,30,486,-42,0,0,0,1438,1412,1426,1400,0, SMALL_ANGLE, IDLE
1932,54372322,-1,1,-2,-4,14,1,0,0,0,20,0,1419,42,396,77,0,0,0,1439,1413,1429,1395,0, SMALL_ANGLE, IDLE
1934,54374328,-1,1,-2,-5,14,0,0,0,0,20,0,1419,21,460,-18,0,0,0,1440,1410,1430,1396,0, SMALL_ANGLE, IDLE
1936,54376324,-1,1,-2,-5,14,0,0,-1,0,20,0,1419,35,416,48,0,0,0,1437,1413,1429,1397,0, SMALL_ANGLE, IDLE
1938,54378332,-1,1,-3,-5,14,0,0,0,0,20,0,1419,24,437,14,0,0,0,1439,1413,1431,1393,0, SMALL_ANGLE, IDLE
1940,54380327,-1,1,-2,-5,14,0,0,-1,0,20,0,1419,23,443,13,0,0,0,1436,1412,1430,1398,0, SMALL_ANGLE, IDLE
1942,54382322,-1,1,-3,-5,14,0,0,0,0,20,0,1419,33,440,29,0,0,0,1437,1413,1431,1395,0, SMALL_ANGLE, IDLE
1944,54384325,0,1,-2,-5,14,0,0,0,0,20,0,1419,23,430,-13,0,0,0,1439,1411,1429,1397,0, SMALL_ANGLE, IDLE
1946,54386321,0,0,-2,-5,14,0,0,-1,0,19,0,1419,28,456,33,0,0,0,1436,1414,1428,1398,0, SMALL_ANGLE, IDLE
1948,54388323,0,0,-1,-5,14,0,0,-2,0,19,0,1419,16,424,-20,0,0,0,1435,1413,1427,1401,0, SMALL_ANGLE, IDLE
1950,54390323,0,0,-1,-5,14,0,0,0,0,19,0,1419,22,448,8,0,0,0,1437,1411,1429,1399,0, SMALL_ANGLE, IDLE
1952,54392329,0,0,0,-5,14,0,0,-3,0,19,0,1419,21,443,-22,0,0,0,1436,1414,1424,1402,0, SMALL_ANGLE, IDLE
1954,54394322,0,0,0,-5,14,0,0,1,0,19,0,1419,12,390,9,0,0,0,1441,1407,1431,1397,0, SMALL_ANGLE, IDLE
1956,54396324,0,0,0,-5,14,0,0,-3,0,18,0,1419,18,497,-22,0,0,0,1435,1413,1423,1405,0, SMALL_ANGLE, IDLE
1958,54398320,0,0,0,-5,14,0,1,-1,0,18,0,1419,2,356,19,0,0,0,1437,1411,1425,1403,0, SMALL_ANGLE, IDLE
1960,54400328,0,0,0,-5,14,0,1,0,0,18,0,1419,8,499,0,0,0,0,1435,1411,1427,1403,0, SMALL_ANGLE, IDLE
1962,54402325,0,0,0,-5,14,0,0,-4,0,18,0,1419,4,385,-4,0,0,0,1434,1414,1422,1406,0, SMALL_ANGLE, IDLE
1964,54404323,0,0,-1,-5,14,0,1,2,0,17,0,1419,1,410,22,0,0,0,1439,1407,1431,1399,0, SMALL_ANGLE, IDLE
1966,54406323,0,-1,0,-5,14,0,1,-5,0,17,0,1419,0,466,-37,0,0,0,1430,1416,1420,1410,0, SMALL_ANGLE, IDLE
1968,54408327,0,0,-1,-5,14,0,1,1,0,17,0,1419,-9,325,52,0,0,0,1439,1407,1431,1399,0, SMALL_ANGLE, IDLE
1970,54410324,0,-2,0,-5,14,0,1,-3,0,16,0,1419,-8,509,-33,0,0,0,1432,1414,1422,1408,0, SMALL_ANGLE, IDLE
1972,54412326,0,-1,0,-5,14,0,1,-2,0,16,0,1419,-9,310,41,0,0,0,1433,1413,1425,1405,0, SMALL_ANGLE, IDLE
1974,54414324,0,-1,-2,-5,14,0,1,0,0,16,-1,1419,-9,467,-7,0,0,0,1436,1410,1430,1400,0, SMALL_ANGLE, IDLE
1976,54416323,0,-2,-1,-5,14,0,1,-5,0,15,-1,1419,-10,364,-3,0,0,0,1428,1418,1422,1408,0, SMALL_ANGLE, IDLE
1978,54418326,0,-1,-3,-5,14,0,0,1,0,15,-1,1419,-11,379,12,0,0,0,1435,1411,1431,1399,0, SMALL_ANGLE, IDLE
1980,54420323,0,-2,-1,-5,13,0,1,-5,0,15,-1,1419,-16,429,-50,0,0,0,1428,1418,1422,1408,0, SMALL_ANGLE, IDLE
1982,54422326,0,-1,-3,-5,13,0,1,1,0,14,-1,1419,-14,296,48,0,0,0,1434,1412,1432,1398,0, SMALL_ANGLE, IDLE
1984,54424321,0,-2,-2,-5,13,0,1,-2,0,14,-1,1419,-25,453,-46,0,0,0,1428,1416,1426,1406,0, SMALL_ANGLE, IDLE
1986,54426322,0,-1,-3,-5,13,0,1,-1,0,14,-1,1419,-18,283,29,0,0,0,1430,1414,1430,1402,0, SMALL_ANGLE, IDLE
1988,54428326,0,-2,-3,-5,13,0,1,1,0,14,-1,1419,-27,417,-19,0,0,0,1432,1412,1432,1400,0, SMALL_ANGLE, IDLE
1990,54430322,0,-2,-3,-5,13,0,1,-3,0,13,-1,1419,-23,317,2,0,0,0,1429,1415,1427,1405,0, SMALL_ANGLE, IDLE
1992,54432318,0,-1,-4,-5,13,0,0,1,0,13,0,1419,-25,344,20,0,0,0,1433,1411,1433,1399,0, SMALL_ANGLE, IDLE
1994,54434315,0,-2,-1,-5,13,0,1,-2,0,13,0,1419,-28,353,-46,0,0,0,1430,1414,1426,1406,0, SMALL_ANGLE, IDLE
1996,54436317,0,-1,-2,-5,13,0,0,1,0,12,0,1419,-21,273,34,0,0,0,1436,1410,1430,1400,0, SMALL_ANGLE, IDLE
1998,54438597,0,-2,0,-5,13,0,0,-1,0,12,0,1419,-31,362,-58,0,0,0,1432,1412,1424,1408,0, SMALL_ANGLE, IDLE
2000,54440319,0,-1,0,-5,13,0,0,0,0,11,0,1419,-6,245,15,0,0,0,1437,1409,1427,1403,0, SMALL_ANGLE, IDLE
2002,54442320,0,-2,0,-4,13,0,0,1,0,11,0,1420,-18,336,-39,0,0,0,1440,1410,1426,1404,0, SMALL_ANGLE, IDLE
2004,54444314,0,-1,1,-4,13,0,0,0,0,11,0,1420,-18,257,-17,0,0,0,1439,1409,1425,1407,0, SMALL_ANGLE, IDLE
2006,54446322,0,-2,1,-4,13,0,0,1,0,10,0,1420,-15,290,1,0,0,0,1441,1409,1427,1403,0, SMALL_ANGLE, IDLE
2008,54448325,0,-2,2,-4,13,0,0,0,0,10,0,1420,-26,258,-46,0,0,0,1438,1410,1424,1408,0, SMALL_ANGLE, IDLE
2010,54450320,0,-1,2,-4,13,0,0,2,0,10,0,1420,-2,260,2,0,0,0,1442,1408,1426,1404,0, SMALL_ANGLE, IDLE
2012,54452313,0,-1,2,-4,13,0,0,0,0,9,0,1420,-21,247,-40,0,0,0,1441,1409,1423,1407,0, SMALL_ANGLE, IDLE
2014,54454315,0,-1,3,-4,13,0,0,1,0,9,0,1421,-4,243,-11,0,0,0,1443,1409,1425,1407,0, SMALL_ANGLE, IDLE
2016,54456313,0,-1,2,-4,13,0,0,0,0,9,0,1421,-16,230,-12,0,0,0,1442,1410,1424,1408,0, SMALL_ANGLE, IDLE
2018,54458313,0,-1,2,-4,13,0,0,2,0,8,0,1422,-18,206,-9,0,0,0,1445,1407,1429,1407,0, SMALL_ANGLE, IDLE
2020,54460312,0,-2,2,-4,13,0,0,-1,0,8,0,1422,-3,253,-5,0,0,0,1440,1414,1424,1410,0, SMALL_ANGLE, IDLE
2022,54462312,0,0,2,-4,13,0,0,2,0,8,0,1423,-13,150,-11,0,0,0,1446,1410,1430,1406,0, SMALL_ANGLE, IDLE
2024,54464312,0,-1,2,-4,13,0,0,0,0,8,0,1424,0,273,-15,0,0,0,1444,1414,1428,1410,0, SMALL_ANGLE, IDLE
2026,54466320,0,-1,1,-4,13,0,0,0,0,7,0,1425,-13,123,10,0,0,0,1446,1414,1430,1410,0, SMALL_ANGLE, IDLE
2028,54468314,0,-1,1,-4,13,0,0,2,0,7,0,1425,-8,226,1,0,0,0,1447,1413,1433,1407,0, SMALL_ANGLE, IDLE
2030,54470317,0,-1,0,-4,13,0,0,-1,0,7,0,1426,-13,158,9,0,0,0,1443,1419,1429,1413,0, SMALL_ANGLE, IDLE
2032,54472317,0,0,0,-4,13,0,0,5,0,7,0,1427,-17,141,19,0,0,0,1451,1411,1441,1405,0, SMALL_ANGLE, IDLE
2034,54474313,0,-1,0,-4,13,0,0,-2,0,7,0,1427,-9,234,5,0,0,0,1442,1420,1432,1414,0, SMALL_ANGLE, IDLE
2036,54476320,0,0,-1,-4,13,0,0,3,0,6,0,1429,-23,51,34,0,0,0,1451,1415,1443,1407,0, SMALL_ANGLE, IDLE
2038,54478317,0,-1,-1,-4,13,0,0,0,0,6,0,1430,-14,254,3,0,0,0,1445,1423,1439,1413,0, SMALL_ANGLE, IDLE
2040,54480315,0,0,-1,-4,13,0,0,1,0,6,0,1431,-25,22,23,0,0,0,1449,1421,1443,1411,0, SMALL_ANGLE, IDLE
2042,54482313,0,0,-1,-4,13,0,0,4,0,5,0,1431,-18,201,-3,0,0,0,1451,1419,1445,1409,0, SMALL_ANGLE, IDLE
2044,54484319,0,0,-1,-4,13,0,0,-3,0,5,0,1433,-28,92,14,0,0,0,1445,1429,1439,1419,0, SMALL_ANGLE, IDLE
2046,54486319,0,0,-1,-4,13,0,0,6,0,5,0,1433,-25,84,-4,0,0,0,1456,1416,1452,1408,0, SMALL_ANGLE, IDLE
2048,54488317,0,-1,0,-4,13,0,0,-4,0,4,0,1434,-19,182,-17,0,0,0,1447,1429,1437,1423,0, SMALL_ANGLE, IDLE
2050,54490310,0,0,0,-4,13,0,0,4,0,4,0,1435,-27,-25,18,0,0,0,1457,1419,1451,1413,0, SMALL_ANGLE, IDLE
2052,54492309,0,-1,0,-4,13,0,0,-1,0,4,0,1435,-24,225,-24,0,0,0,1450,1426,1442,1422,0, SMALL_ANGLE, IDLE
2054,54494315,0,0,-1,-4,13,0,0,0,0,3,0,1435,-30,-48,52,0,0,0,1452,1424,1446,1418,0, SMALL_ANGLE, IDLE
2056,54496317,1,0,-1,-4,13,0,0,2,0,3,0,1436,-35,175,0,0,0,0,1454,1424,1450,1416,0, SMALL_ANGLE, IDLE
2058,54498309,1,0,-1,-4,13,0,0,-4,0,3,0,1436,-33,18,24,0,0,0,1447,1431,1443,1423,0, SMALL_ANGLE, IDLE
2060,54500309,1,0,-2,-4,13,0,0,6,0,3,0,1436,-40,59,11,0,0,0,1458,1420,1454,1412,0, SMALL_ANGLE, IDLE
2062,54502319,1,0,-1,-4,13,0,0,-3,0,3,0,1437,-36,101,-11,0,0,0,1449,1431,1443,1425,0, SMALL_ANGLE, IDLE
2064,54504312,1,1,-1,-4,13,0,0,5,0,2,0,1437,-31,-32,2,0,0,0,1460,1420,1454,1414,0, SMALL_ANGLE, IDLE
2066,54506314,1,0,0,-4,13,0,0,-2,0,2,0,1438,-23,153,-39,0,0,0,1453,1431,1443,1425,0, SMALL_ANGLE, IDLE
2068,54508307,0,0,0,-4,13,0,0,0,0,1,0,1439,-20,-60,31,0,0,0,1459,1427,1449,1421,0, SMALL_ANGLE, IDLE
2070,54510310,0,0,0,-4,13,0,0,0,0,1,0,1440,-18,128,-13,0,0,0,1457,1431,1447,1425,0, SMALL_ANGLE, IDLE
2072,54512306,0,0,0,-4,13,0,0,-1,0,1,0,1442,-5,-58,10,0,0,0,1460,1434,1448,1426,0, SMALL_ANGLE, IDLE
2074,54514310,0,0,0,-4,13,0,-1,2,0,0,0,1443,-8,59,-19,0,0,0,1466,1432,1452,1422,0, SMALL_ANGLE, IDLE
2076,54516314,0,0,0,-4,13,0,-1,-3,0,0,0,1444,0,-18,-12,0,0,0,1462,1438,1446,1430,0, SMALL_ANGLE, IDLE
2078,54518311,0,0,0,-4,13,0,-2,3,0,0,0,1444,9,-1,-3,0,0,0,1470,1432,1452,1422,0, SMALL_ANGLE, IDLE
2080,54520309,0,0,1,-4,13,0,-1,-1,0,0,1,1446,10,10,-19,0,0,0,1467,1439,1447,1431,0, SMALL_ANGLE, IDLE
2082,54522315,0,0,2,-4,13,0,-3,3,0,0,1,1446,40,-45,5,0,0,0,1475,1433,1453,1423,0, SMALL_ANGLE, IDLE
2084,54524306,0,0,3,-4,13,0,-2,0,0,0,1,1447,24,9,-11,0,0,0,1473,1437,1449,1429,0, SMALL_ANGLE, IDLE
2086,54526306,-1,1,3,-4,13,0,-3,3,0,0,1,1448,57,-78,6,0,0,0,1480,1434,1454,1424,0, SMALL_ANGLE, IDLE
2088,54528306,-1,1,3,-4,13,0,-3,1,0,0,1,1449,37,-5,0,0,0,0,1480,1436,1452,1428,0, SMALL_ANGLE, IDLE
2090,54530308,-1,2,3,-4,13,0,-2,3,0,0,1,1450,57,-97,22,0,0,0,1483,1435,1457,1425,0, SMALL_ANGLE, IDLE
2092,54532304,-1,1,2,-4,13,0,-3,2,0,0,1,1450,42,-14,43,0,0,0,1480,1438,1456,1426,0, SMALL_ANGLE, IDLE
2094,54534308,-1,2,1,-4,13,0,-1,4,0,0,1,1451,53,-123,14,0,0,0,1483,1435,1461,1425,0, SMALL_ANGLE, IDLE
2096,54536310,-1,2,2,-4,13,0,-2,2,0,0,2,1452,58,-9,21,0,0,0,1485,1439,1457,1427,0, SMALL_ANGLE, IDLE
2098,54538607,-1,3,3,-4,13,0,-1,3,0,0,2,1452,42,-144,27,0,0,0,1485,1435,1461,1427,0, SMALL_ANGLE, IDLE
2100,54540303,-1,3,4,-4,13,1,-2,1,0,0,3,1453,63,-17,21,0,0,0,1486,1438,1458,1430,0, SMALL_ANGLE, IDLE
2102,54542308,-1,3,4,-4,13,1,-1,0,0,0,3,1453,28,-154,49,0,0,0,1484,1438,1456,1434,0, SMALL_ANGLE, IDLE
2104,54544309,-1,4,6,-4,13,1,0,4,0,0,3,1453,51,-61,2,0,0,0,1490,1430,1462,1430,0, SMALL_ANGLE, IDLE
2106,54546301,-1,4,6,-4,13,1,0,-1,0,0,3,1453,31,-113,38,0,0,0,1485,1437,1453,1437,0, SMALL_ANGLE, IDLE
2108,54548303,-1,5,8,-4,13,1,0,5,0,0,3,1454,44,-120,-13,0,0,0,1494,1426,1464,1432,0, SMALL_ANGLE, IDLE
2110,54550308,-1,3,9,-4,13,1,0,-2,0,0,4,1454,34,-49,29,0,0,0,1487,1435,1451,1443,0, SMALL_ANGLE, IDLE
2112,54552310,-1,5,10,-5,14,1,1,5,0,0,4,1454,19,-184,24,0,0,0,1496,1422,1462,1436,0, SMALL_ANGLE, IDLE
2114,54554306,-1,4,11,-5,14,1,0,-1,0,0,4,1454,29,-2,41,0,0,0,1488,1432,1452,1444,0, SMALL_ANGLE, IDLE
2116,54556304,0,6,10,-5,14,1,1,3,0,0,4,1454,1,-235,63,0,0,0,1494,1422,1462,1438,0, SMALL_ANGLE, IDLE
2118,54558305,0,4,9,-5,14,1,0,1,0,0,3,1455,26,2,53,0,0,0,1491,1429,1459,1441,0, SMALL_ANGLE, IDLE
2120,54560310,0,5,7,-5,14,1,1,0,0,0,3,1455,-5,-225,101,0,0,0,1488,1430,1464,1438,0, SMALL_ANGLE, IDLE
2122,54562309,0,4,6,-5,14,1,1,1,0,0,3,1455,13,6,62,0,0,0,1487,1431,1465,1437,0, SMALL_ANGLE, IDLE
2124,54564303,0,5,3,-5,14,1,1,-3,0,0,3,1455,-5,-176,129,0,0,0,1480,1438,1462,1440,0, SMALL_ANGLE, IDLE
2126,54566308,0,5,2,-5,14,1,1,3,0,0,3,1456,-2,-38,64,0,0,0,1486,1432,1472,1434,0, SMALL_ANGLE, IDLE
2128,54568301,0,4,1,-5,14,1,1,-3,0,0,3,1456,-4,-130,119,0,0,0,1477,1443,1465,1439,0, SMALL_ANGLE, IDLE
2130,54570299,0,5,0,-5,14,1,2,4,0,0,3,1456,-26,-94,86,0,0,0,1483,1433,1477,1431,0, SMALL_ANGLE, IDLE
2132,54572301,0,4,0,-5,14,1,1,-4,0,0,3,1456,-7,-73,97,0,0,0,1474,1444,1466,1440,0, SMALL_ANGLE, IDLE
2134,54574311,0,5,-1,-5,14,1,1,2,0,0,4,1457,-25,-127,100,0,0,0,1483,1437,1477,1431,0, SMALL_ANGLE, IDLE
2136,54576307,0,3,0,-5,14,1,1,-3,0,0,3,1457,-4,-32,80,0,0,0,1476,1444,1468,1440,0, SMALL_ANGLE, IDLE
2138,54578305,0,4,-1,-5,14,1,0,1,0,0,3,1457,-15,-144,111,0,0,0,1482,1440,1474,1432,0, SMALL_ANGLE, IDLE
2140,54580298,0,3,0,-4,14,1,1,-2,0,0,3,1457,-10,-21,55,0,0,0,1477,1443,1469,1439,0, SMALL_ANGLE, IDLE
2142,54582303,0,4,-2,-4,14,1,0,0,0,0,3,1457,0,-134,141,0,0,0,1480,1444,1472,1432,0, SMALL_ANGLE, IDLE
2144,54584306,0,3,-2,-4,14,1,1,-2,0,0,3,1457,-23,-7,64,0,0,0,1474,1446,1470,1438,0, SMALL_ANGLE, IDLE
2146,54586303,0,4,-2,-4,14,1,0,0,0,0,3,1458,25,-133,111,0,0,0,1480,1446,1472,1434,0, SMALL_ANGLE, IDLE
2148,54588307,0,3,-2,-4,14,1,0,-2,0,0,3,1458,-19,-3,70,0,0,0,1478,1448,1470,1436,0, SMALL_ANGLE, IDLE
2150,54590304,0,3,-1,-4,14,1,0,0,0,0,3,1458,42,-136,78,0,0,0,1482,1446,1470,1434,0, SMALL_ANGLE, IDLE
2152,54592307,0,2,-1,-4,14,1,-1,-1,0,0,3,1458,-15,9,81,0,0,0,1480,1448,1468,1436,0, SMALL_ANGLE, IDLE
2154,54594296,0,3,-1,-4,14,1,0,0,0,0,2,1459,26,-145,85,0,0,0,1481,1447,1473,1435,0, SMALL_ANGLE, IDLE
2156,54596301,0,2,-3,-5,14,1,-1,0,0,0,2,1459,-3,8,101,0,0,0,1481,1451,1471,1433,0, SMALL_ANGLE, IDLE
2158,54598300,0,3,-3,-4,14,1,0,-1,0,0,2,1459,12,-129,71,0,0,0,1478,1448,1474,1436,0, SMALL_ANGLE, IDLE
2160,54600303,0,2,-4,-5,14,1,-2,0,0,0,2,1459,25,9,104,0,0,0,1481,1453,1471,1431,0, SMALL_ANGLE, IDLE
2162,54602295,0,2,-4,-5,14,1,0,-2,0,0,2,1460,0,-109,73,0,0,0,1476,1454,1474,1436,0, SMALL_ANGLE, IDLE
2164,54604300,0,2,-4,-5,14,1,-2,0,0,0,2,1461,49,0,81,0,0,0,1484,1454,1474,1432,0, SMALL_ANGLE, IDLE
2166,54606305,0,2,-4,-5,14,1,-1,-2,0,0,2,1461,1,-97,81,0,0,0,1479,1457,1473,1435,0, SMALL_ANGLE, IDLE
2168,54608301,-1,2,-4,-5,15,1,-2,0,0,0,2,1462,67,-12,67,0,0,0,1486,1456,1474,1432,0, SMALL_ANGLE, IDLE
2170,54610301,-1,2,-4,-5,15,1,-2,-3,0,0,2,1463,12,-72,92,0,0,0,1482,1462,1472,1436,0, SMALL_ANGLE, IDLE
2172,54612305,-1,2,-4,-5,15,1,-1,1,0,0,2,1463,61,-31,49,0,0,0,1487,1455,1477,1433,0, SMALL_ANGLE, IDLE
2174,54614295,-1,1,-3,-5,15,1,-2,-2,0,0,2,1464,19,-56,79,0,0,0,1484,1462,1472,1438,0, SMALL_ANGLE, IDLE
2176,54616297,-1,2,-2,-5,15,1,0,2,0,0,2,1465,51,-47,15,0,0,0,1491,1453,1479,1437,0, SMALL_ANGLE, IDLE
2178,54618298,-1,1,-1,-5,15,1,-1,-2,0,0,2,1466,37,-46,67,0,0,0,1489,1461,1473,1441,0, SMALL_ANGLE, IDLE
2180,54620293,-1,2,0,-5,15,1,0,2,0,0,2,1467,32,-67,18,0,0,0,1495,1453,1481,1439,0, SMALL_ANGLE, IDLE
2182,54622302,-1,2,-1,-5,15,1,-1,-1,0,0,1,1468,57,-37,63,0,0,0,1492,1460,1476,1444,0, SMALL_ANGLE, IDLE
2184,54624295,-1,3,-2,-5,15,1,0,2,0,0,1,1469,25,-79,37,0,0,0,1496,1456,1484,1440,0, SMALL_ANGLE, IDLE
2186,54626297,-1,1,-2,-5,15,1,0,-2,0,0,1,1469,58,-13,53,0,0,0,1491,1463,1477,1445,0, SMALL_ANGLE, IDLE
2188,54628303,-1,3,-3,-5,15,0,0,2,0,0,1,1471,28,-97,64,0,0,0,1497,1461,1487,1439,0, SMALL_ANGLE, IDLE
2190,54630297,-1,2,-3,-5,15,0,0,-1,0,0,1,1471,58,-4,49,0,0,0,1492,1464,1482,1446,0, SMALL_ANGLE, IDLE
2192,54632299,-1,3,-4,-5,15,0,-1,1,0,0,1,1473,57,-109,76,0,0,0,1498,1466,1488,1440,0, SMALL_ANGLE, IDLE
2194,54634294,-1,2,-4,-5,15,0,0,-1,0,0,1,1473,50,4,32,0,0,0,1493,1467,1485,1447,0, SMALL_ANGLE, IDLE
2196,54636298,-2,3,-3,-5,15,0,-2,1,0,0,1,1476,79,-122,48,0,0,0,1503,1469,1489,1443,0, SMALL_ANGLE, IDLE
2198,54638726,-1,1,-3,-5,15,0,0,-1,0,0,1,1477,26,12,27,0,0,0,1498,1470,1488,1452,0, SMALL_ANGLE, IDLE
2200,54640295,-1,3,-3,-5,15,0,-1,4,0,0,1,1477,85,-135,48,0,0,0,1507,1465,1493,1443,0, SMALL_ANGLE, IDLE
2202,54642295,-1,2,-3,-5,15,0,-1,5,0,0,1,1478,15,2,36,0,0,0,1507,1465,1495,1445,0, SMALL_ANGLE, IDLE
2204,54644296,-2,3,-2,-5,15,0,-1,5,0,0,1,1478,99,-144,7,0,0,0,1511,1463,1495,1443,0, SMALL_ANGLE, IDLE
2206,54646295,-1,3,-1,-5,15,0,-1,5,0,0,1,1478,7,-25,39,0,0,0,1510,1464,1494,1444,0, SMALL_ANGLE, IDLE
2208,54648294,-1,4,-1,-5,15,0,0,4,0,0,1,1479,69,-141,9,0,0,0,1510,1462,1496,1448,0, SMALL_ANGLE, IDLE
2210,54650291,-1,3,0,-5,15,0,-1,4,0,0,1,1480,20,-25,33,0,0,0,1512,1466,1494,1448,0, SMALL_ANGLE, IDLE
2212,54652295,-1,4,0,-5,15,0,0,3,0,0,1,1481,63,-128,-21,0,0,0,1513,1463,1495,1453,0, SMALL_ANGLE, IDLE
2214,54654289,-1,3,0,-5,15,0,-1,2,0,0,1,1482,44,-19,38,0,0,0,1514,1468,1492,1454,0, SMALL_ANGLE, IDLE
2216,54656293,-1,3,1,-5,15,0,0,2,0,0,1,1483,41,-127,-10,0,0,0,1513,1465,1497,1457,0, SMALL_ANGLE, IDLE
2218,54658296,-1,3,0,-5,15,0,0,1,0,0,1,1484,46,-11,51,0,0,0,1515,1471,1493,1457,0, SMALL_ANGLE, IDLE
2220,54660290,-1,3,0,-5,15,0,1,0,0,0,1,1485,16,-118,16,0,0,0,1511,1469,1499,1461,0, SMALL_ANGLE, IDLE
2222,54662289,-1,2,0,-5,15,0,0,0,0,0,1,1486,44,-3,45,0,0,0,1513,1473,1497,1461,0, SMALL_ANGLE, IDLE
2224,54664301,-1,3,0,-5,15,0,1,-1,0,0,1,1487,13,-92,6,0,0,0,1512,1474,1498,1464,0, SMALL_ANGLE, IDLE
2226,54666291,-1,2,0,-5,15,0,0,0,0,0,1,1488,53,7,21,0,0,0,1515,1477,1495,1465,0, SMALL_ANGLE, IDLE
2228,54668289,-1,1,0,-5,15,0,0,-3,0,0,1,1490,24,-44,9,0,0,0,1512,1482,1496,1470,0, SMALL_ANGLE, IDLE
2230,54670288,-1,1,1,-5,15,0,0,-2,0,0,1,1491,47,11,16,0,0,0,1516,1480,1496,1472,0, SMALL_ANGLE, IDLE
2232,54672292,-1,1,0,-6,15,0,0,-3,0,0,1,1493,23,-20,37,0,0,0,1514,1486,1498,1474,0, SMALL_ANGLE, IDLE
2234,54674292,-1,0,0,-6,15,0,1,-2,0,0,1,1494,19,0,25,0,0,0,1515,1483,1501,1477,0, SMALL_ANGLE, IDLE
2236,54676290,0,1,0,-6,15,0,0,-1,0,0,2,1495,18,-37,59,0,0,0,1517,1485,1503,1475,0, SMALL_ANGLE, IDLE
2238,54678286,0,0,0,-6,15,0,2,-1,0,0,2,1496,-11,4,39,0,0,0,1517,1483,1505,1479,0, SMALL_ANGLE, IDLE
2240,54680297,0,0,0,-6,15,0,0,-1,0,0,2,1497,47,-17,39,0,0,0,1520,1486,1504,1478,0, SMALL_ANGLE, IDLE
2242,54682296,0,0,1,-6,15,0,1,-3,0,0,2,1498,-18,35,35,0,0,0,1518,1488,1502,1484,0, SMALL_ANGLE, IDLE
2244,54684291,-1,0,0,-6,15,0,0,-2,0,0,1,1499,73,-12,38,0,0,0,1522,1492,1502,1480,0, SMALL_ANGLE, IDLE
2246,54686293,0,0,0,-6,15,0,0,-2,0,0,1,1499,-40,30,50,0,0,0,1519,1491,1505,1481,0, SMALL_ANGLE, IDLE
2248,54688294,-1,0,0,-6,15,0,0,-1,0,0,1,1501,82,-14,35,0,0,0,1522,1494,1508,1480,0, SMALL_ANGLE, IDLE
2250,54690287,0,0,-1,-6,15,0,0,-1,0,0,1,1501,-45,21,48,0,0,0,1521,1493,1509,1481,0, SMALL_ANGLE, IDLE
2252,54692295,-1,0,-1,-6,15,0,0,-2,0,0,1,1502,82,3,37,0,0,0,1521,1497,1509,1481,0, SMALL_ANGLE, IDLE
2254,54694287,0,0,-2,-6,15,0,0,0,0,0,1,1503,-48,10,71,0,0,0,1523,1497,1513,1479,0, SMALL_ANGLE, IDLE
2256,54696290,0,0,-2,-6,15,0,1,-1,0,0,1,1505,76,-2,39,0,0,0,1523,1499,1515,1483,0, SMALL_ANGLE, IDLE
2258,54698287,0,0,-4,-6,15,0,0,0,0,0,1,1505,-61,-12,86,0,0,0,1524,1498,1518,1480,0, SMALL_ANGLE, IDLE
2260,54700297,0,0,-3,-6,15,0,2,0,0,0,1,1507,44,-16,26,0,0,0,1525,1497,1523,1483,0, SMALL_ANGLE, IDLE
2262,54702284,0,0,-5,-6,15,0,1,1,0,0,1,1510,-67,-27,98,0,0,0,1528,1500,1528,1484,0, SMALL_ANGLE, IDLE
2264,54704286,0,0,-4,-6,15,0,3,1,0,0,1,1511,40,-30,15,0,0,0,1529,1499,1529,1487,0, SMALL_ANGLE, IDLE
2266,54706286,0,1,-5,-6,15,0,0,2,0,0,1,1513,-50,-52,97,0,0,0,1533,1503,1533,1483,0, SMALL_ANGLE, IDLE
2268,54708291,0,1,-3,-6,15,0,2,3,0,0,1,1514,32,-59,-19,0,0,0,1537,1499,1533,1487,0, SMALL_ANGLE, IDLE
2270,54710296,0,2,-4,-6,15,0,0,3,0,0,1,1516,-44,-69,91,0,0,0,1539,1503,1537,1485,0, SMALL_ANGLE, IDLE
2272,54712289,0,2,-2,-6,15,0,2,3,0,0,1,1518,19,-69,-3,0,0,0,1540,1502,1538,1492,0, SMALL_ANGLE, IDLE
2274,54714293,0,2,-4,-6,15,0,0,3,0,0,1,1520,-20,-61,107,0,0,0,1544,1508,1540,1488,0, SMALL_ANGLE, IDLE
2276,54716285,0,2,-3,-6,15,0,0,1,0,0,1,1521,20,-78,1,0,0,0,1545,1507,1539,1493,0, SMALL_ANGLE, IDLE
2278,54718293,0,3,-4,-6,15,0,0,3,0,0,1,1523,-7,-67,89,0,0,0,1549,1511,1543,1489,0, SMALL_ANGLE, IDLE
2280,54720286,0,3,-2,-6,15,0,0,1,0,0,1,1525,14,-103,-11,0,0,0,1550,1512,1542,1496,0, SMALL_ANGLE, IDLE
2282,54722289,0,3,-3,-6,16,0,0,4,0,0,1,1527,3,-60,74,0,0,0,1555,1513,1547,1493,0, SMALL_ANGLE, IDLE
2284,54724287,0,3,-1,-6,16,0,0,0,0,0,1,1529,4,-111,-21,0,0,0,1556,1514,1544,1502,0, SMALL_ANGLE, IDLE
2286,54726281,0,3,-2,-6,16,0,-1,3,0,0,1,1531,40,-49,53,0,0,0,1562,1516,1548,1498,0, SMALL_ANGLE, IDLE
2288,54728292,0,3,0,-6,16,0,0,0,0,0,1,1534,2,-113,-4,0,0,0,1562,1520,1546,1508,0, SMALL_ANGLE, IDLE
2290,54730287,-1,3,-1,-6,16,0,-3,3,0,0,1,1535,78,-59,44,0,0,0,1568,1522,1548,1502,0, SMALL_ANGLE, IDLE
2292,54732280,0,4,0,-6,16,0,-1,0,0,0,1,1537,-8,-131,21,0,0,0,1567,1523,1549,1509,0, SMALL_ANGLE, IDLE
2294,54734284,-1,4,-1,-6,16,0,-2,3,0,0,1,1538,90,-67,46,0,0,0,1572,1524,1552,1504,0, SMALL_ANGLE, IDLE
2296,54736291,0,4,0,-6,16,0,-1,1,0,0,1,1539,-7,-132,28,0,0,0,1569,1525,1553,1509,0, SMALL_ANGLE, IDLE
2298,54738607,-2,4,-1,-6,16,0,-4,2,0,0,1,1541,119,-82,43,0,0,0,1576,1532,1552,1504,0, SMALL_ANGLE, IDLE
2300,54740283,-1,4,-1,-6,16,0,0,3,0,0,1,1544,-3,-124,32,0,0,0,1576,1526,1562,1512,0, SMALL_ANGLE, IDLE
2302,54742289,-2,4,-1,-6,16,0,0,3,0,0,1,1546,127,-103,50,0,0,0,1578,1532,1562,1512,0, SMALL_ANGLE, IDLE
2304,54744278,-1,5,-1,-6,16,0,1,3,0,0,1,1547,11,-112,26,0,0,0,1577,1529,1567,1515,0, SMALL_ANGLE, IDLE
2306,54746289,-2,5,-2,-6,16,0,-2,2,0,0,1,1549,137,-139,64,0,0,0,1583,1537,1563,1513,0, SMALL_ANGLE, IDLE
2308,54748284,-2,5,-2,-6,16,0,0,4,-1,0,1,1551,37,-103,15,0,0,0,1585,1535,1569,1515,0, SMALL_ANGLE, IDLE
2310,54750281,-3,5,-2,-6,16,0,-4,2,-1,0,1,1552,135,-180,72,0,0,0,1590,1544,1564,1510,0, SMALL_ANGLE, IDLE
2312,54752281,-3,5,-2,-6,16,0,-1,3,-1,0,1,1554,65,-85,13,0,0,0,1590,1540,1570,1516,0, SMALL_ANGLE, IDLE
2314,54754281,-4,6,-3,-6,16,0,-4,3,-1,0,1,1556,134,-209,111,0,0,0,1595,1549,1569,1511,0, SMALL_ANGLE, IDLE
2316,54756282,-3,5,-4,-6,16,0,-1,2,-1,0,1,1557,96,-81,35,0,0,0,1592,1546,1574,1516,0, SMALL_ANGLE, IDLE
2318,54758286,-4,6,-6,-6,16,0,-5,3,-1,0,1,1558,138,-211,128,0,0,0,1596,1554,1574,1508,0, SMALL_ANGLE, IDLE
2320,54760279,-4,6,-5,-7,16,0,-1,1,-1,0,1,1558,119,-104,28,0,0,0,1591,1551,1575,1515,0, SMALL_ANGLE, IDLE
2322,54762284,-4,7,-7,-7,17,0,-4,4,-1,0,1,1558,128,-199,110,0,0,0,1596,1554,1576,1506,0, SMALL_ANGLE, IDLE
2324,54764286,-4,6,-5,-7,17,0,0,1,-1,0,1,1559,113,-155,18,0,0,0,1592,1550,1578,1516,0, SMALL_ANGLE, IDLE
2326,54766280,-5,7,-6,-7,17,0,-3,4,-2,0,1,1561,107,-169,69,0,0,0,1600,1554,1580,1510,0, SMALL_ANGLE, IDLE
2328,54768281,-4,7,-4,-7,17,0,0,1,-2,0,1,1562,96,-191,22,0,0,0,1596,1552,1580,1520,0, SMALL_ANGLE, IDLE
2330,54770283,-4,7,-5,-7,17,0,-2,3,-2,0,1,1563,85,-148,56,0,0,0,1603,1553,1581,1515,0, SMALL_ANGLE, IDLE
2332,54772279,-4,7,-3,-7,17,0,0,1,-2,0,1,1565,99,-220,16,0,0,0,1601,1553,1583,1523,0, SMALL_ANGLE, IDLE
2334,54774284,-4,7,-3,-7,17,0,-2,3,-2,0,1,1566,74,-147,40,0,0,0,1607,1555,1583,1519,0, SMALL_ANGLE, IDLE
2336,54776284,-4,8,-1,-7,17,0,1,1,-2,0,1,1567,102,-223,6,0,0,0,1604,1552,1584,1528,0, SMALL_ANGLE, IDLE
2338,54778276,-4,8,-2,-7,17,0,-1,2,-2,0,1,1569,54,-162,34,0,0,0,1610,1556,1586,1524,0, SMALL_ANGLE, IDLE
2340,54780275,-4,8,0,-7,17,0,1,1,-2,0,1,1569,120,-206,4,0,0,0,1607,1553,1585,1531,0, SMALL_ANGLE, IDLE
2342,54782280,-4,8,-1,-8,17,0,0,1,-2,0,1,1571,26,-177,33,0,0,0,1611,1557,1587,1529,0, SMALL_ANGLE, IDLE
2344,54784278,-4,8,0,-8,17,0,2,1,-2,0,1,1572,112,-196,16,0,0,0,1610,1554,1588,1536,0, SMALL_ANGLE, IDLE
2346,54786278,-3,8,0,-8,17,0,1,1,-2,0,1,1573,-15,-182,-14,0,0,0,1613,1555,1589,1535,0, SMALL_ANGLE, IDLE
2348,54788281,-3,7,1,-8,18,0,5,0,-2,0,1,1573,96,-174,9,0,0,0,1606,1552,1590,1544,0, SMALL_ANGLE, IDLE
2350,54790275,-2,7,2,-8,18,0,4,0,-2,0,1,1575,-56,-158,-26,0,0,0,1610,1552,1592,1546,0, SMALL_ANGLE, IDLE
2352,54792274,-2,7,1,-8,18,0,6,0,-2,0,1,1575,65,-214,70,0,0,0,1608,1552,1594,1546,0, SMALL_ANGLE, IDLE
2354,54794277,-1,8,1,-8,18,0,5,1,-2,0,1,1578,-85,-156,-2,0,0,0,1612,1552,1600,1548,0, SMALL_ANGLE, IDLE
2356,54796280,-1,8,0,-8,18,0,5,1,-2,0,1,1578,46,-255,85,0,0,0,1612,1554,1600,1546,0, SMALL_ANGLE, IDLE
2358,54798278,0,8,0,-8,18,0,5,1,-2,0,1,1579,-78,-144,-2,0,0,0,1612,1554,1602,1548,0, SMALL_ANGLE, IDLE
2360,54800278,-1,8,0,-8,18,0,3,0,-2,0,1,1580,45,-241,65,0,0,0,1615,1559,1601,1545,0, SMALL_ANGLE, IDLE
2362,54802280,0,8,0,-8,18,0,5,0,-1,0,1,1581,-62,-142,0,0,0,0,1612,1558,1602,1552,0, SMALL_ANGLE, IDLE
2364,54804281,0,8,0,-8,18,0,3,0,-1,0,1,1581,23,-213,33,0,0,0,1615,1559,1603,1547,0, SMALL_ANGLE, IDLE
2366,54806272,0,7,0,-8,18,0,5,0,-1,0,1,1582,-43,-175,10,0,0,0,1613,1559,1603,1553,0, SMALL_ANGLE, IDLE
2368,54808273,0,8,0,-8,18,0,2,0,-1,0,1,1582,-4,-179,26,0,0,0,1617,1561,1601,1549,0, SMALL_ANGLE, IDLE
2370,54810279,0,7,0,-8,18,0,3,-1,-1,0,1,1582,1,-190,27,0,0,0,1614,1560,1602,1552,0, SMALL_ANGLE, IDLE
2372,54812274,0,7,0,-8,18,0,0,0,-1,0,1,1582,-31,-171,40,0,0,0,1617,1563,1601,1547,0, SMALL_ANGLE, IDLE
2374,54814278,0,7,0,-8,19,0,1,0,-1,0,1,1583,62,-202,21,0,0,0,1618,1564,1600,1550,0, SMALL_ANGLE, IDLE
2376,54816270,0,8,0,-8,19,0,-1,1,-1,0,1,1583,-43,-169,33,0,0,0,1622,1566,1600,1544,0, SMALL_ANGLE, IDLE
2378,54818274,-1,8,0,-8,19,0,0,0,-1,0,1,1583,99,-212,21,0,0,0,1622,1566,1598,1546,0, SMALL_ANGLE, IDLE
2380,54820278,-1,7,-1,-8,19,0,-1,0,-1,0,0,1584,-47,-139,13,0,0,0,1622,1568,1602,1544,0, SMALL_ANGLE, IDLE
2382,54822278,-1,8,-1,-8,19,0,0,0,-1,0,0,1584,91,-231,56,0,0,0,1621,1569,1601,1545,0, SMALL_ANGLE, IDLE
2384,54824278,0,7,-2,-8,19,0,0,0,-1,0,0,1584,-44,-112,5,0,0,0,1618,1568,1604,1546,0, SMALL_ANGLE, IDLE
2386,54826269,-1,8,-4,-8,19,0,0,0,-1,0,0,1585,67,-248,105,0,0,0,1620,1572,1606,1542,0, SMALL_ANGLE, IDLE
2388,54828273,-1,7,-4,-8,19,0,0,0,-1,0,0,1586,-21,-115,-5,0,0,0,1617,1573,1607,1547,0, SMALL_ANGLE, IDLE
2390,54830272,-1,8,-7,-8,19,0,-1,1,-1,0,0,1586,56,-235,106,0,0,0,1620,1576,1610,1538,0, SMALL_ANGLE, IDLE
2392,54832273,-1,7,-6,-8,19,0,0,0,-1,0,0,1586,19,-150,16,0,0,0,1616,1576,1608,1544,0, SMALL_ANGLE, IDLE
2394,54834269,-2,7,-7,-8,19,0,-3,0,-1,0,0,1586,64,-176,46,0,0,0,1621,1579,1607,1537,0, SMALL_ANGLE, IDLE
2396,54836275,-2,7,-6,-8,19,0,-1,-1,-1,0,0,1586,70,-196,35,0,0,0,1619,1579,1605,1541,0, SMALL_ANGLE, IDLE
2398,54838271,-2,7,-6,-8,19,0,-4,0,-1,0,0,1587,56,-132,1,0,0,0,1624,1582,1604,1538,0, SMALL_ANGLE, IDLE
2400,54840277,-2,7,-6,-9,20,0,-1,-1,-1,0,0,1587,107,-197,54,0,0,0,1621,1581,1605,1541,0, SMALL_ANGLE, IDLE
2402,54842271,-2,6,-5,-9,20,0,-2,-1,-1,0,0,1587,20,-122,-9,0,0,0,1623,1581,1603,1541,0, SMALL_ANGLE, IDLE
2404,54844276,-3,6,-5,-9,20,0,-1,-1,-1,0,0,1588,126,-163,47,0,0,0,1621,1581,1605,1545,0, SMALL_ANGLE, IDLE
2406,54846276,-2,6,-4,-9,20,0,0,-1,-1,0,0,1588,-13,-146,0,0,0,0,1621,1579,1605,1547,0, SMALL_ANGLE, IDLE
2408,54848267,-2,6,-4,-9,20,0,0,0,-1,0,0,1589,101,-156,15,0,0,0,1623,1579,1607,1547,0, SMALL_ANGLE, IDLE
2410,54850273,-1,6,-2,-9,20,0,1,-1,-1,0,0,1590,-6,-148,-10,0,0,0,1624,1576,1608,1552,0, SMALL_ANGLE, IDLE
2412,54852433,-2,6,-2,-9,20,0,0,0,-1,0,0,1590,59,-169,17,0,0,0,1628,1578,1606,1548,0, SMALL_ANGLE, IDLE
2414,54854273,-1,6,-1,-9,20,0,1,-1,-1,0,0,1591,42,-133,-17,0,0,0,1626,1576,1608,1554,0, SMALL_ANGLE, IDLE
2416,54856275,-2,6,-2,-9,20,0,0,0,-1,0,0,1592,8,-183,20,0,0,0,1630,1578,1610,1550,0, SMALL_ANGLE, IDLE
2418,54858269,-2,6,0,-9,20,0,1,-1,-1,0,0,1592,89,-147,-16,0,0,0,1627,1577,1609,1555,0, SMALL_ANGLE, IDLE
2420,54860273,-1,6,-1,-9,20,0,0,0,-1,0,0,1593,-43,-139,0,0,0,0,1631,1577,1611,1553,0, SMALL_ANGLE, IDLE
2422,54862272,-1,6,0,-9,20,0,2,-1,-1,0,0,1594,90,-184,13,0,0,0,1628,1578,1610,1560,0, SMALL_ANGLE, IDLE
2424,54864266,-1,6,0,-9,20,0,2,0,-1,0,0,1595,-71,-96,-23,0,0,0,1630,1576,1614,1560,0, SMALL_ANGLE, IDLE
2426,54866275,-1,7,0,-9,20,0,2,0,-1,0,0,1597,64,-241,40,0,0,0,1634,1578,1616,1560,0, SMALL_ANGLE, IDLE
2428,54868267,0,6,0,-9,20,0,2,0,-1,0,0,1597,-43,-91,-50,0,0,0,1634,1576,1616,1562,0, SMALL_ANGLE, IDLE
2430,54870266,-1,7,0,-9,21,0,0,0,-1,0,0,1598,54,-225,39,0,0,0,1637,1579,1617,1559,0, SMALL_ANGLE, IDLE
2432,54872275,0,6,1,-9,21,0,1,0,-1,0,0,1599,-1,-136,-51,0,0,0,1637,1579,1615,1565,0, SMALL_ANGLE, IDLE
2434,54874272,-1,7,0,-9,21,0,0,1,-1,0,0,1600,31,-169,-5,0,0,0,1643,1581,1617,1559,0, SMALL_ANGLE, IDLE
2436,54876268,-1,7,2,-9,21,0,1,0,-1,0,0,1600,17,-209,-23,0,0,0,1641,1579,1615,1565,0, SMALL_ANGLE, IDLE
2438,54878271,-1,7,2,-9,21,0,0,1,-1,0,0,1601,-1,-134,-43,0,0,0,1645,1579,1617,1563,0, SMALL_ANGLE, IDLE
2440,54880271,-1,7,2,-9,21,0,0,0,-2,0,0,1601,43,-215,3,0,0,0,1643,1579,1617,1565,0, SMALL_ANGLE, IDLE
2442,54882268,-1,7,2,-9,21,0,0,0,-2,0,0,1601,-43,-151,-28,0,0,0,1645,1581,1615,1563,0, SMALL_ANGLE, IDLE
2444,54884270,-1,7,1,-9,21,0,0,0,-2,0,0,1602,45,-187,28,0,0,0,1645,1581,1619,1563,0, SMALL_ANGLE, IDLE
2446,54886270,-1,7,1,-9,21,0,0,0,-2,0,0,1603,-58,-196,-7,0,0,0,1645,1581,1621,1565,0, SMALL_ANGLE, IDLE
2448,54888261,-1,7,0,-9,21,0,0,1,-2,0,0,1604,46,-191,23,0,0,0,1648,1584,1622,1562,0, SMALL_ANGLE, IDLE
2450,54890270,-1,7,0,-9,21,0,0,1,-2,0,0,1605,-10,-192,-4,0,0,0,1648,1584,1624,1564,0, SMALL_ANGLE, IDLE
2452,54892270,-1,8,0,-9,21,0,-1,1,-2,0,0,1605,15,-208,23,0,0,0,1650,1588,1622,1560,0, SMALL_ANGLE, IDLE
2454,54894267,-1,7,-1,-9,21,0,0,0,-2,0,0,1606,52,-177,32,0,0,0,1648,1588,1626,1562,0, SMALL_ANGLE, IDLE
2456,54896269,-1,8,-2,-10,22,0,-1,1,-2,0,0,1607,-27,-199,14,0,0,0,1650,1592,1626,1560,0, SMALL_ANGLE, IDLE
2458,54898269,-2,8,-2,-10,22,0,0,0,-2,0,0,1607,92,-210,39,0,0,0,1649,1591,1627,1561,0, SMALL_ANGLE, IDLE
2460,54900267,-1,7,-2,-10,22,0,0,1,-2,0,0,1609,-54,-152,-5,0,0,0,1650,1592,1630,1564,0, SMALL_ANGLE, IDLE
2462,54902262,-2,8,-3,-10,22,0,0,0,-2,0,0,1609,65,-250,63,0,0,0,1650,1594,1630,1562,0, SMALL_ANGLE, IDLE
2464,54904267,-1,7,-2,-10,22,0,0,0,-2,0,0,1610,-33,-129,-27,0,0,0,1649,1593,1631,1567,0, SMALL_ANGLE, IDLE
2466,54906266,-1,8,-2,-10,22,0,0,0,-2,0,0,1612,23,-241,17,0,0,0,1655,1595,1633,1565,0, SMALL_ANGLE, IDLE
2468,54908264,-1,7,0,-10,22,0,0,0,-2,0,0,1612,20,-174,-25,0,0,0,1653,1593,1631,1571,0, SMALL_ANGLE, IDLE
2470,54910266,-1,8,0,-10,22,0,-1,1,-2,0,0,1613,-8,-175,-14,0,0,0,1658,1594,1632,1568,0, SMALL_ANGLE, IDLE
2472,54912265,-1,7,0,-10,22,0,0,-1,-2,0,0,1613,55,-223,20,0,0,0,1655,1595,1631,1571,0, SMALL_ANGLE, IDLE
2474,54914259,-1,7,0,-10,22,0,0,0,-2,0,0,1614,-25,-131,-5,0,0,0,1657,1597,1631,1571,0, SMALL_ANGLE, IDLE
2476,54916268,-2,7,-1,-10,22,0,0,0,-2,0,0,1614,65,-237,35,0,0,0,1657,1597,1633,1569,0, SMALL_ANGLE, IDLE
2478,54918265,-1,7,-1,-10,22,0,0,0,-2,0,0,1614,-33,-150,-10,0,0,0,1655,1597,1633,1571,0, SMALL_ANGLE, IDLE
2480,54920260,-1,7,-1,-10,23,0,0,0,-2,0,0,1614,36,-192,8,0,0,0,1655,1597,1633,1571,0, SMALL_ANGLE, IDLE
2482,54922261,-1,7,0,-10,23,0,1,-1,-2,0,0,1614,0,-175,-19,0,0,0,1654,1596,1632,1574,0, SMALL_ANGLE, IDLE
2484,54924265,-1,7,0,-10,23,0,0,0,-2,0,0,1614,-15,-158,17,0,0,0,1656,1596,1632,1572,0, SMALL_ANGLE, IDLE
2486,54926267,-1,7,0,-10,23,0,1,-1,-2,0,0,1614,35,-194,-4,0,0,0,1654,1596,1632,1574,0, SMALL_ANGLE, IDLE
2488,54928258,-1,7,0,-10,23,0,0,0,-2,0,0,1615,-49,-159,4,0,0,0,1657,1597,1633,1573,0, SMALL_ANGLE, IDLE
2490,54930257,-1,7,0,-10,23,0,1,0,-2,0,0,1615,50,-201,26,0,0,0,1656,1596,1634,1574,0, SMALL_ANGLE, IDLE
2492,54932263,-1,7,0,-10,23,0,1,0,-2,0,0,1615,-58,-148,-35,0,0,0,1656,1596,1634,1574,0, SMALL_ANGLE, IDLE
2494,54934266,-1,7,-1,-10,23,0,0,0,-2,0,0,1616,31,-207,51,0,0,0,1658,1598,1636,1572,0, SMALL_ANGLE, IDLE
2496,54936266,0,6,0,-10,23,0,2,-1,-2,0,0,1616,-53,-135,-28,0,0,0,1654,1596,1636,1578,0, SMALL_ANGLE, IDLE
2498,54938266,-1,7,-1,-10,23,0,0,0,-2,0,0,1616,-16,-196,20,0,0,0,1657,1597,1637,1573,0, SMALL_ANGLE, IDLE
2500,54940260,0,6,0,-10,23,0,2,0,-2,0,0,1616,-17,-175,-4,0,0,0,1655,1595,1637,1577,0, SMALL_ANGLE, IDLE
2502,54942260,0,7,0,-10,23,0,0,0,-2,0,0,1616,-60,-154,-6,0,0,0,1659,1595,1637,1573,0, SMALL_ANGLE, IDLE
2504,54944260,0,7,-1,-10,23,0,1,0,-2,0,0,1616,19,-213,60,0,0,0,1655,1597,1637,1575,0, SMALL_ANGLE, IDLE
2506,54946263,0,6,-1,-10,24,0,0,0,-2,0,0,1616,-59,-123,-24,0,0,0,1657,1597,1637,1573,0, SMALL_ANGLE, IDLE
2508,54948265,-1,7,-1,-10,24,0,0,0,-2,0,0,1616,49,-210,19,0,0,0,1659,1599,1635,1571,0, SMALL_ANGLE, IDLE
2510,54950259,0,6,0,-10,24,0,0,0,-2,0,0,1616,-30,-157,-5,0,0,0,1659,1599,1635,1571,0, SMALL_ANGLE, IDLE
2512,54952256,-1,7,0,-10,24,0,-1,0,-2,0,0,1616,21,-184,-17,0,0,0,1662,1598,1634,1570,0, SMALL_ANGLE, IDLE
2514,54954262,-1,7,0,-10,24,0,0,0,-2,0,0,1616,25,-182,0,0,0,0,1660,1598,1634,1572,0, SMALL_ANGLE, IDLE
2516,54956256,-1,7,0,-10,24,0,-1,0,-2,0,0,1616,-20,-151,-20,0,0,0,1662,1598,1632,1572,0, SMALL_ANGLE, IDLE
2518,54958257,-1,6,0,-11,24,0,0,-1,-2,0,0,1616,65,-170,0,0,0,0,1661,1599,1631,1573,0, SMALL_ANGLE, IDLE
2520,54960259,-1,6,0,-11,24,0,0,-1,-2,0,0,1616,-43,-131,-8,0,0,0,1660,1598,1632,1574,0, SMALL_ANGLE, IDLE
2522,54962259,-2,6,1,-11,24,0,-1,-1,-2,0,1,1617,55,-172,15,0,0,0,1663,1599,1631,1575,0, SMALL_ANGLE, IDLE
2524,54964263,-1,6,0,-11,24,0,0,-1,-2,0,0,1617,6,-121,-6,0,0,0,1660,1600,1632,1576,0, SMALL_ANGLE, IDLE
2526,54966257,-2,6,0,-11,24,0,-2,-1,-2,0,0,1617,17,-155,48,0,0,0,1662,1602,1632,1572,0, SMALL_ANGLE, IDLE
2528,54968256,-2,5,0,-11,24,0,0,-2,-2,0,0,1617,63,-123,1,0,0,0,1659,1603,1631,1575,0, SMALL_ANGLE, IDLE
2530,54970260,-1,5,-2,-11,24,0,-1,-1,-2,0,0,1617,-40,-113,22,0,0,0,1658,1604,1634,1572,0, SMALL_ANGLE, IDLE
2532,54972258,-2,5,-1,-11,24,0,0,-2,-3,0,0,1618,71,-171,29,0,0,0,1659,1605,1633,1575,0, SMALL_ANGLE, IDLE
2534,54974254,-1,5,-1,-11,24,0,-1,-1,-3,0,0,1618,-45,-63,-34,0,0,0,1661,1605,1633,1573,0, SMALL_ANGLE, IDLE
2536,54976253,-2,5,-2,-11,24,0,0,-1,-3,0,0,1618,36,-186,60,0,0,0,1660,1606,1634,1572,0, SMALL_ANGLE, IDLE
2538,54978264,-1,4,0,-11,25,0,0,-2,-3,0,0,1618,-29,-76,-40,0,0,0,1659,1603,1633,1577,0, SMALL_ANGLE, IDLE
2540,54980262,-2,5,-1,-11,25,0,0,0,-3,0,0,1618,0,-133,25,0,0,0,1661,1603,1635,1573,0, SMALL_ANGLE, IDLE
2542,54982256,-1,4,-1,-11,25,0,1,-1,-3,0,0,1619,-16,-142,24,0,0,0,1658,1604,1636,1578,0, SMALL_ANGLE, IDLE
2544,54984261,-1,4,-2,-11,25,0,0,0,-3,0,0,1619,-35,-74,9,0,0,0,1659,1605,1637,1575,0, SMALL_ANGLE, IDLE
2546,54986401,-1,4,-2,-11,25,0,1,-1,-3,0,0,1620,19,-148,39,0,0,0,1657,1607,1639,1577,0, SMALL_ANGLE, IDLE
2548,54988255,-1,4,-1,-11,25,0,0,-1,-3,0,0,1620,-42,-83,-19,0,0,0,1659,1607,1637,1577,0, SMALL_ANGLE, IDLE
2550,54990260,-2,4,-1,-11,25,0,0,-2,-3,0,0,1620,33,-103,4,0,0,0,1658,1608,1636,1578,0, SMALL_ANGLE, IDLE
2552,54992256,-1,4,0,-11,25,0,0,-3,-3,0,0,1620,-39,-81,-17,0,0,0,1659,1607,1633,1581,0, SMALL_ANGLE, IDLE
2554,54994252,-1,3,0,-11,25,0,0,-3,-3,0,0,1620,0,-75,-27,0,0,0,1661,1607,1631,1581,0, SMALL_ANGLE, IDLE
2556,54996258,-1,3,0,-11,25,0,1,-3,-3,0,0,1620,2,-69,0,0,0,0,1658,1606,1632,1584,0, SMALL_ANGLE, IDLE
2558,54998251,-1,3,0,-11,25,0,0,-2,-3,0,0,1621,-59,-88,-13,0,0,0,1662,1606,1634,1582,0, SMALL_ANGLE, IDLE
2560,55000253,-1,3,0,-11,25,0,0,-1,-3,0,0,1621,39,-91,7,0,0,0,1662,1606,1634,1582,0, SMALL_ANGLE, IDLE
2562,55002256,-1,3,0,-11,25,0,0,0,-3,0,0,1621,-61,-79,-6,0,0,0,1663,1605,1635,1581,0, SMALL_ANGLE, IDLE
2564,55004250,-1,3,0,-11,25,0,0,0,-3,0,0,1621,22,-131,37,0,0,0,1664,1606,1636,1578,0, SMALL_ANGLE, IDLE
2566,55006255,-1,3,0,-11,25,0,0,0,-3,0,0,1621,-18,-56,-12,0,0,0,1662,1606,1636,1580,0, SMALL_ANGLE, IDLE
2568,55008255,-1,3,-1,-12,25,0,0,0,-4,0,0,1621,-44,-118,34,0,0,0,1664,1608,1636,1576,0, SMALL_ANGLE, IDLE
2570,55010250,-2,3,0,-12,25,0,0,-1,-4,0,0,1621,31,-80,3,0,0,0,1661,1609,1635,1579,0, SMALL_ANGLE, IDLE
2572,55012252,-1,3,-1,-12,25,0,0,0,-4,0,0,1621,-85,-52,-13,0,0,0,1664,1608,1636,1576,0, SMALL_ANGLE, IDLE
2574,55014251,-2,3,-1,-12,25,0,0,0,-4,0,0,1621,17,-151,45,0,0,0,1663,1607,1637,1577,0, SMALL_ANGLE, IDLE
2576,55016254,-1,3,-1,-12,25,0,0,0,-4,0,0,1621,-78,-17,-13,0,0,0,1662,1606,1638,1578,0, SMALL_ANGLE, IDLE
2578,55018254,-1,3,-2,-12,25,0,0,0,-4,0,0,1621,-17,-136,54,0,0,0,1663,1607,1639,1575,0, SMALL_ANGLE, IDLE
2580,55020254,-1,3,-2,-12,25,0,1,0,-4,0,0,1621,-51,-75,6,0,0,0,1660,1606,1640,1578,0, SMALL_ANGLE, IDLE
2582,55022252,-1,3,-3,-12,25,0,0,1,-4,0,0,1621,-44,-72,15,0,0,0,1663,1607,1641,1573,0, SMALL_ANGLE, IDLE
2584,55024249,-1,3,-2,-12,25,0,0,0,-4,0,0,1621,-20,-126,12,0,0,0,1661,1607,1639,1577,0, SMALL_ANGLE, IDLE
2586,55026246,-1,3,-1,-12,25,0,0,0,-3,0,0,1621,-58,-49,-40,0,0,0,1664,1606,1638,1576,0, SMALL_ANGLE, IDLE
2588,55028249,-1,3,0,-12,26,0,1,0,-3,0,0,1621,4,-114,0,0,0,0,1663,1603,1639,1579,0, SMALL_ANGLE, IDLE
2590,55030255,-1,3,0,-12,26,0,1,0,-3,0,0,1621,-78,-81,-22,0,0,0,1664,1602,1638,1580,0, SMALL_ANGLE, IDLE
2592,55032252,-1,3,0,-12,26,0,2,0,-3,0,0,1621,-37,-94,-5,0,0,0,1663,1601,1639,1581,0, SMALL_ANGLE, IDLE
2594,55034244,0,3,1,-12,26,0,3,0,-3,0,0,1621,-84,-95,-18,0,0,0,1662,1598,1640,1584,0, SMALL_ANGLE, IDLE
2596,55036246,0,3,1,-12,26,0,3,0,-3,0,0,1621,-102,-91,-18,0,0,0,1662,1598,1640,1584,0, SMALL_ANGLE, IDLE
2598,55038247,0,3,1,-12,26,0,4,0,-3,0,0,1621,-67,-76,-11,0,0,0,1660,1598,1640,1586,0, SMALL_ANGLE, IDLE
2600,55040249,0,3,2,-12,26,0,3,0,-3,0,0,1621,-142,-96,-26,0,0,0,1661,1597,1641,1585,0, SMALL_ANGLE, IDLE
2602,55042246,0,3,1,-12,26,0,2,0,-3,0,0,1621,-42,-115,20,0,0,0,1664,1598,1640,1582,0, SMALL_ANGLE, IDLE
2604,55044244,0,3,1,-12,26,0,2,0,-3,0,0,1621,-119,-60,-25,0,0,0,1663,1597,1641,1583,0, SMALL_ANGLE, IDLE
2606,55046250,0,3,0,-12,26,0,0,0,-3,0,0,1621,-74,-133,34,0,0,0,1663,1601,1639,1581,0, SMALL_ANGLE, IDLE
2608,55048249,0,3,0,-12,26,0,1,0,-3,0,0,1621,-61,-43,17,0,0,0,1660,1602,1640,1582,0, SMALL_ANGLE, IDLE
2610,55050248,0,3,0,-12,26,0,0,0,-3,0,0,1621,-123,-87,-7,0,0,0,1662,1602,1640,1580,0, SMALL_ANGLE, IDLE
2612,55052246,0,3,0,-12,26,0,1,-1,-3,0,0,1621,-33,-97,30,0,0,0,1660,1604,1638,1582,0, SMALL_ANGLE, IDLE
2614,55054247,0,3,0,-12,26,0,0,0,-3,0,0,1621,-124,-26,-10,0,0,0,1660,1604,1640,1580,0, SMALL_ANGLE, IDLE
2616,55056250,0,3,-2,-12,26,0,0,0,-3,0,0,1621,-27,-136,44,0,0,0,1661,1607,1639,1577,0, SMALL_ANGLE, IDLE
2618,55058244,0,2,-1,-12,26,0,0,0,-3,0,0,1621,-75,-37,12,0,0,0,1661,1607,1639,1577,0, SMALL_ANGLE, IDLE
2620,55060250,0,3,-2,-12,26,0,-1,0,-3,0,0,1621,-63,-84,17,0,0,0,1663,1607,1639,1575,0, SMALL_ANGLE, IDLE
2622,55062246,0,2,-2,-12,26,0,0,-1,-3,0,0,1621,-39,-86,16,0,0,0,1660,1608,1638,1578,0, SMALL_ANGLE, IDLE
2624,55064250,0,2,-2,-12,26,0,-1,0,-3,0,0,1621,-88,-43,-4,0,0,0,1662,1606,1640,1576,0, SMALL_ANGLE, IDLE
2626,55066242,0,3,-2,-12,26,0,0,0,-3,0,0,1621,-32,-105,18,0,0,0,1661,1607,1639,1577,0, SMALL_ANGLE, IDLE
2628,55068252,0,2,-1,-12,26,0,0,0,-3,0,0,1621,-94,-49,-8,0,0,0,1661,1605,1639,1579,0, SMALL_ANGLE, IDLE
2630,55070248,0,3,-1,-12,26,0,0,0,-3,0,0,1621,-54,-89,19,0,0,0,1663,1605,1639,1577,0, SMALL_ANGLE, IDLE
2632,55072548,0,2,-1,-12,26,0,0,0,-4,0,0,1621,-78,-67,5,0,0,0,1661,1605,1639,1579,0, SMALL_ANGLE, IDLE
2634,55074249,0,3,-2,-12,26,0,0,0,-4,0,0,1621,-95,-89,26,0,0,0,1663,1605,1641,1575,0, SMALL_ANGLE, IDLE
2636,55076242,0,3,-1,-12,26,0,0,0,-4,0,0,1621,-42,-90,6,0,0,0,1664,1604,1640,1576,0, SMALL_ANGLE, IDLE
2638,55078241,0,3,-1,-12,26,0,-1,1,-4,0,0,1621,-105,-72,-13,0,0,0,1666,1604,1640,1574,0, SMALL_ANGLE, IDLE
2640,55080239,0,3,-1,-12,26,0,-1,0,-4,0,0,1621,-25,-102,17,0,0,0,1665,1605,1639,1575,0, SMALL_ANGLE, IDLE
2642,55082243,0,3,0,-12,26,0,0,0,-4,0,0,1621,-110,-46,-50,0,0,0,1665,1603,1637,1579,0, SMALL_ANGLE, IDLE
2644,55084242,0,3,0,-12,26,0,0,0,-4,0,0,1621,-53,-107,23,0,0,0,1665,1605,1637,1577,0, SMALL_ANGLE, IDLE
2646,55086243,0,2,1,-12,27,0,0,0,-4,0,0,1621,-88,-33,-39,0,0,0,1664,1602,1636,1582,0, SMALL_ANGLE, IDLE
2648,55088247,0,2,1,-12,27,0,0,0,-4,0,0,1621,-107,-70,-36,0,0,0,1665,1603,1635,1581,0, SMALL_ANGLE, IDLE
2650,55090243,0,2,2,-12,27,0,1,-1,-4,0,0,1621,-85,-72,11,0,0,0,1662,1602,1636,1584,0, SMALL_ANGLE, IDLE
2652,55092246,0,2,2,-12,27,0,1,0,-4,0,0,1621,-167,-38,-31,0,0,0,1663,1599,1639,1583,0, SMALL_ANGLE, IDLE
2654,55094238,0,2,1,-12,27,0,2,0,-4,0,0,1621,-92,-105,24,0,0,0,1661,1599,1641,1583,0, SMALL_ANGLE, IDLE
2656,55096247,1,2,1,-12,27,0,2,0,-4,0,0,1621,-168,-34,-16,0,0,0,1662,1598,1640,1584,0, SMALL_ANGLE, IDLE
2658,55098242,0,2,0,-12,27,0,2,0,-4,0,0,1621,-120,-77,1,0,0,0,1660,1600,1640,1584,0, SMALL_ANGLE, IDLE
2660,55100238,1,2,1,-12,27,0,2,-1,-4,0,0,1621,-151,-37,-3,0,0,0,1658,1600,1640,1586,0, SMALL_ANGLE, IDLE
2662,55102240,1,2,2,-12,27,0,1,-1,-4,0,0,1621,-158,-40,-43,0,0,0,1661,1599,1637,1587,0, SMALL_ANGLE, IDLE
2664,55104249,1,1,2,-12,27,0,2,-1,-4,0,0,1621,-109,-51,-20,0,0,0,1661,1599,1637,1587,0, SMALL_ANGLE, IDLE
2666,55106240,1,1,3,-12,27,0,1,0,-4,0,0,1621,-184,-36,-27,0,0,0,1662,1598,1638,1586,0, SMALL_ANGLE, IDLE
2668,55108239,1,2,3,-12,27,0,1,0,-4,0,0,1621,-123,-73,-12,0,0,0,1662,1598,1638,1586,0, SMALL_ANGLE, IDLE
2670,55110242,1,1,2,-12,27,0,1,0,-4,0,0,1621,-160,-31,-1,0,0,0,1661,1597,1639,1587,0, SMALL_ANGLE, IDLE
2672,55112244,1,2,1,-12,27,0,0,0,-4,0,0,1621,-160,-91,25,0,0,0,1662,1598,1640,1584,0, SMALL_ANGLE, IDLE
2674,55114242,1,2,1,-12,27,0,1,0,-4,0,0,1621,-122,-40,-12,0,0,0,1661,1599,1639,1585,0, SMALL_ANGLE, IDLE
2676,55116237,2,2,0,-11,27,0,1,0,-3,0,0,1621,-203,-53,-2,0,0,0,1660,1598,1642,1584,0, SMALL_ANGLE, IDLE
2678,55118242,1,2,1,-11,27,0,2,0,-3,0,0,1621,-106,-66,5,0,0,0,1659,1599,1641,1585,0, SMALL_ANGLE, IDLE
2680,55120234,2,1,1,-11,27,0,2,0,-3,0,0,1621,-184,5,-53,0,0,0,1658,1598,1640,1588,0, SMALL_ANGLE, IDLE
2682,55122245,2,2,1,-11,27,0,0,0,-3,0,0,1621,-123,-96,35,0,0,0,1660,1600,1640,1584,0, SMALL_ANGLE, IDLE
2684,55124234,2,1,1,-11,27,0,1,0,-3,0,0,1621,-137,-19,-18,0,0,0,1660,1598,1640,1586,0, SMALL_ANGLE, IDLE
2686,55126234,2,2,0,-11,27,0,0,0,-3,0,0,1621,-149,-69,27,0,0,0,1662,1600,1642,1580,0, SMALL_ANGLE, IDLE
2688,55128232,1,2,0,-11,27,0,0,0,-3,0,0,1621,-96,-88,43,0,0,0,1660,1600,1642,1582,0, SMALL_ANGLE, IDLE
2690,55130239,1,2,-1,-11,27,0,-1,0,-3,0,0,1621,-146,-10,-16,0,0,0,1661,1603,1641,1579,0, SMALL_ANGLE, IDLE
2692,55132237,1,2,-2,-11,27,0,0,0,-2,0,0,1621,-70,-106,60,0,0,0,1660,1604,1642,1578,0, SMALL_ANGLE, IDLE
2694,55134237,1,2,-2,-11,27,0,0,0,-2,0,0,1621,-120,-26,-5,0,0,0,1659,1603,1643,1579,0, SMALL_ANGLE, IDLE
2696,55136242,1,2,-2,-11,27,0,-1,0,-2,0,0,1621,-40,-65,21,0,0,0,1661,1605,1641,1577,0, SMALL_ANGLE, IDLE
2698,55138233,1,2,-2,-11,27,0,-1,0,-2,0,0,1621,-82,-59,20,0,0,0,1660,1606,1640,1578,0, SMALL_ANGLE, IDLE
